
  68663831, $GNGGA,190423.40,4028.8911415,N,10650.3581249,W,4,16,0.9,2111.975,M,-12.180,M,1.4,0000*5B
  68664830, $GNGGA,190424.40,4028.8911436,N,10650.3581326,W,4,17,1.0,2111.959,M,-12.180,M,2.4,0000*51
  68665830, $GNGGA,190425.40,4028.8911425,N,10650.3581286,W,4,17,1.0,2111.962,M,-12.180,M,1.4,0000*52
  68666829, $GNGGA,190426.40,4028.8911420,N,10650.3581291,W,4,17,1.0,2111.963,M,-12.180,M,2.4,0000*50
  68667831, $GNGGA,190427.40,4028.8911408,N,10650.3581246,W,4,17,1.0,2111.976,M,-12.180,M,1.4,0000*56
  68668830, $GNGGA,190428.40,4028.8911392,N,10650.3581223,W,4,16,1.0,2111.989,M,-12.180,M,2.4,0000*5C
  68669832, $GNGGA,190429.40,4028.8911406,N,10650.3581276,W,4,16,0.9,2111.959,M,-12.180,M,1.4,0000*51
  68670829, $GNGGA,190430.40,4028.8911436,N,10650.3581323,W,4,17,1.0,2111.954,M,-12.180,M,2.4,0000*5C
  68671829, $GNGGA,190431.40,4028.8911435,N,10650.3581282,W,4,17,1.0,2111.964,M,-12.180,M,1.4,0000*54
  68672829, $GNGGA,190432.40,4028.8911431,N,10650.3581248,W,4,16,1.0,2111.970,M,-12.180,M,2.4,0000*52
  68673829, $GNGGA,190433.40,4028.8911421,N,10650.3581221,W,4,17,1.0,2111.980,M,-12.180,M,1.4,0000*50
  68674831, $GNGGA,190434.40,4028.8911425,N,10650.3581228,W,4,17,0.8,2111.978,M,-12.180,M,2.4,0000*57
  68675828, $GNGGA,190435.40,4028.8911395,N,10650.3581211,W,4,17,0.8,2111.990,M,-12.180,M,1.4,0000*55
  68676832, $GNGGA,190436.40,4028.8911434,N,10650.3581277,W,4,17,1.0,2111.962,M,-12.180,M,2.4,0000*5D
  68677830, $GNGGA,190437.40,4028.8911366,N,10650.3581190,W,4,18,0.8,2111.985,M,-12.180,M,1.4,0000*5A
  68678831, $GNGGA,190438.40,4028.8911418,N,10650.3581274,W,4,17,1.0,2111.952,M,-12.180,M,2.4,0000*5D
  68679831, $GNGGA,190439.40,4028.8911437,N,10650.3581267,W,4,17,1.0,2111.956,M,-12.180,M,1.4,0000*54
  68680831, $GNGGA,190440.40,4028.8911420,N,10650.3581252,W,4,17,1.0,2111.967,M,-12.180,M,2.4,0000*5B
  68681829, $GNGGA,190441.40,4028.8911458,N,10650.3581309,W,4,17,1.0,2111.949,M,-12.180,M,1.4,0000*55
  68682828, $GNGGA,190442.40,4028.8911359,N,10650.3581201,W,4,18,0.8,2111.961,M,-12.180,M,2.4,0000*56
  68683828, $GNGGA,190443.40,4028.8909887,N,10650.3582251,W,4,17,0.9,2112.192,M,-12.180,M,1.4,0000*5A
  68684829, $GNGGA,190444.40,4028.8909630,N,10650.3583357,W,4,19,0.7,2112.255,M,-12.180,M,2.4,0000*52
  68685829, $GNGGA,190445.40,4028.8910465,N,10650.3583775,W,4,20,0.7,2112.261,M,-12.180,M,1.4,0000*53
  68686831, $GNGGA,190446.40,4028.8910632,N,10650.3583262,W,4,19,0.7,2112.230,M,-12.180,M,2.4,0000*5E
  68687830, $GNGGA,190447.40,4028.8910268,N,10650.3583505,W,4,20,0.7,2112.275,M,-12.180,M,1.4,0000*5A
  68688833, $GNGGA,190448.40,4028.8910454,N,10650.3583346,W,4,19,0.7,2112.408,M,-12.180,M,2.4,0000*58
  68689831, $GNGGA,190449.40,4028.8911396,N,10650.3583677,W,4,19,0.7,2112.391,M,-12.180,M,1.4,0000*52
  68690832, $GNGGA,190450.40,4028.8911592,N,10650.3583653,W,4,18,0.8,2112.395,M,-12.180,M,2.4,0000*57
  68691830, $GNGGA,190451.40,4028.8910940,N,10650.3582689,W,4,18,0.8,2112.372,M,-12.180,M,1.4,0000*58
  68692831, $GNGGA,190452.40,4028.8911366,N,10650.3582627,W,4,18,0.8,2112.377,M,-12.180,M,2.4,0000*56
  68693830, $GNGGA,190453.40,4028.8910213,N,10650.3583149,W,4,18,0.8,2112.411,M,-12.180,M,1.4,0000*5F
  68694830, $GNGGA,190454.40,4028.8909563,N,10650.3583827,W,4,19,0.8,2112.357,M,-12.180,M,2.4,0000*56
  68695828, $GNGGA,190455.40,4028.8909835,N,10650.3582684,W,4,19,0.7,2112.187,M,-12.180,M,1.4,0000*5C
  68696830, $GNGGA,190456.40,4028.8909808,N,10650.3582343,W,4,18,0.7,2112.163,M,-12.180,M,2.4,0000*57
  68697828, $GNGGA,190457.40,4028.8909517,N,10650.3581637,W,4,18,0.7,2112.137,M,-12.180,M,1.4,0000*52
  68698830, $GNGGA,190458.40,4028.8908877,N,10650.3580795,W,4,17,0.9,2112.108,M,-12.180,M,2.4,0000*51
  68699833, $GNGGA,190459.40,4028.8908039,N,10650.3578459,W,4,17,0.8,2112.087,M,-12.180,M,1.4,0000*52
  68700833, $GNGGA,190500.40,4028.8906467,N,10650.3575177,W,4,19,0.8,2112.033,M,-12.180,M,2.4,0000*58
  68701831, $GNGGA,190501.40,4028.8904977,N,10650.3572224,W,4,19,0.8,2111.977,M,-12.180,M,1.4,0000*5C
  68702833, $GNGGA,190502.40,4028.8903497,N,10650.3570010,W,4,19,0.8,2111.933,M,-12.180,M,2.4,0000*5F
  68703830, $GNGGA,190503.40,4028.8901423,N,10650.3567788,W,4,19,0.7,2111.805,M,-12.180,M,1.4,0000*5B
  68704831, $GNGGA,190504.40,4028.8900288,N,10650.3564887,W,4,18,0.9,2111.643,M,-12.180,M,2.4,0000*59
  68705831, $GNGGA,190505.40,4028.8898916,N,10650.3563114,W,4,19,0.8,2111.578,M,-12.180,M,1.4,0000*58
  68706830, $GNGGA,190506.40,4028.8898574,N,10650.3561441,W,4,18,0.8,2111.552,M,-12.180,M,2.4,0000*5E
  68707830, $GNGGA,190507.40,4028.8897971,N,10650.3559158,W,4,18,0.8,2111.482,M,-12.180,M,1.4,0000*50
  68708830, $GNGGA,190508.40,4028.8895836,N,10650.3559091,W,4,20,0.7,2111.199,M,-12.180,M,2.4,0000*53
  68709829, $GNGGA,190509.40,4028.8894275,N,10650.3557331,W,4,19,0.7,2111.061,M,-12.180,M,1.4,0000*56
  68710830, $GNGGA,190510.40,4028.8892989,N,10650.3554057,W,4,18,0.8,2110.991,M,-12.180,M,2.4,0000*5A
  68711829, $GNGGA,190511.40,4028.8892055,N,10650.3551168,W,4,19,0.7,2110.822,M,-12.180,M,1.4,0000*5F
  68712830, $GNGGA,190512.40,4028.8891152,N,10650.3549099,W,4,20,0.7,2110.636,M,-12.180,M,2.4,0000*5D
  68713829, $GNGGA,190513.40,4028.8890121,N,10650.3547917,W,4,20,0.7,2110.568,M,-12.180,M,1.4,0000*53
  68714830, $GNGGA,190514.40,4028.8889268,N,10650.3544292,W,4,20,0.7,2110.428,M,-12.180,M,2.4,0000*51
  68715832, $GNGGA,190515.40,4028.8887644,N,10650.3540718,W,4,20,0.7,2110.381,M,-12.180,M,1.4,0000*50
  68716833, $GNGGA,190516.40,4028.8885455,N,10650.3536642,W,4,20,0.7,2110.359,M,-12.180,M,2.4,0000*5A
  68717832, $GNGGA,190517.40,4028.8883000,N,10650.3533637,W,4,18,0.9,2110.397,M,-12.180,M,1.4,0000*5A
  68718830, $GNGGA,190518.40,4028.8881981,N,10650.3532628,W,4,19,0.7,2110.503,M,-12.180,M,2.4,0000*5F
  68719832, $GNGGA,190519.40,4028.8880658,N,10650.3531424,W,4,20,0.7,2110.619,M,-12.180,M,1.4,0000*58
  68720831, $GNGGA,190520.40,4028.8879793,N,10650.3529535,W,4,22,0.6,2110.704,M,-12.180,M,2.4,0000*57
  68721830, $GNGGA,190521.40,4028.8878362,N,10650.3526809,W,4,21,0.6,2110.857,M,-12.180,M,1.4,0000*59
  68722832, $GNGGA,190522.40,4028.8876830,N,10650.3523857,W,4,20,0.7,2110.872,M,-12.180,M,2.4,0000*52
  68723831, $GNGGA,190523.40,4028.8874744,N,10650.3520217,W,4,20,0.7,2110.876,M,-12.180,M,1.4,0000*57
  68724833, $GNGGA,190524.40,4028.8873331,N,10650.3515616,W,4,21,0.6,2110.931,M,-12.180,M,2.4,0000*53
  68725833, $GNGGA,190525.40,4028.8872264,N,10650.3512106,W,4,21,0.6,2110.880,M,-12.180,M,1.4,0000*5B
  68726832, $GNGGA,190526.40,4028.8871615,N,10650.3510322,W,4,21,0.6,2110.907,M,-12.180,M,2.4,0000*52
  68727830, $GNGGA,190527.40,4028.8869759,N,10650.3507905,W,4,21,0.7,2110.940,M,-12.180,M,1.4,0000*5B
  68728832, $GNGGA,190528.40,4028.8868794,N,10650.3506472,W,4,20,0.7,2111.080,M,-12.180,M,2.4,0000*5E
  68729831, $GNGGA,190529.40,4028.8868681,N,10650.3505129,W,4,20,0.7,2111.063,M,-12.180,M,1.4,0000*5C
  68730830, $GNGGA,190530.40,4028.8866674,N,10650.3502995,W,4,20,0.7,2111.180,M,-12.180,M,2.4,0000*57
  68731833, $GNGGA,190531.40,4028.8865640,N,10650.3499599,W,4,21,0.7,2111.195,M,-12.180,M,1.4,0000*57
  68732835, $GNGGA,190532.40,4028.8863115,N,10650.3495114,W,4,21,0.7,2111.436,M,-12.180,M,2.4,0000*57
  68733832, $GNGGA,190533.40,4028.8862250,N,10650.3490389,W,4,21,0.7,2111.530,M,-12.180,M,1.4,0000*52
  68734834, $GNGGA,190534.40,4028.8860605,N,10650.3487294,W,4,21,0.6,2111.566,M,-12.180,M,2.4,0000*59
  68735832, $GNGGA,190535.40,4028.8858543,N,10650.3484271,W,4,22,0.6,2111.533,M,-12.180,M,1.4,0000*5A
  68736831, $GNGGA,190536.40,4028.8858275,N,10650.3481694,W,4,22,0.6,2111.545,M,-12.180,M,2.4,0000*53
  68737832, $GNGGA,190537.40,4028.8859508,N,10650.3478966,W,4,20,0.7,2111.426,M,-12.180,M,1.4,0000*5E
  68738831, $GNGGA,190538.40,4028.8859382,N,10650.3478832,W,4,19,0.7,2111.400,M,-12.180,M,2.4,0000*58
  68739831, $GNGGA,190539.40,4028.8857282,N,10650.3477790,W,4,21,0.7,2111.520,M,-12.180,M,1.4,0000*55
  68740833, $GNGGA,190540.40,4028.8855426,N,10650.3474486,W,4,21,0.7,2111.499,M,-12.180,M,2.4,0000*56
  68741832, $GNGGA,190541.40,4028.8854171,N,10650.3471921,W,4,21,0.7,2111.524,M,-12.180,M,1.4,0000*50
  68742831, $GNGGA,190542.40,4028.8854054,N,10650.3468406,W,4,21,0.7,2111.439,M,-12.180,M,2.4,0000*5B
  68743832, $GNGGA,190543.40,4028.8852013,N,10650.3465267,W,4,21,0.7,2111.332,M,-12.180,M,1.4,0000*5C
  68744832, $GNGGA,190544.40,4028.8850487,N,10650.3461644,W,4,21,0.7,2111.270,M,-12.180,M,2.4,0000*55
  68745832, $GNGGA,190545.40,4028.8848512,N,10650.3457419,W,4,21,0.7,2111.256,M,-12.180,M,1.4,0000*58
  68746831, $GNGGA,190546.40,4028.8847994,N,10650.3451007,W,4,20,0.7,2110.924,M,-12.180,M,2.4,0000*56
  68747831, $GNGGA,190547.40,4028.8844739,N,10650.3449165,W,4,21,0.7,2111.043,M,-12.180,M,1.4,0000*5A
  68748833, $GNGGA,190548.40,4028.8841296,N,10650.3446369,W,4,21,0.7,2111.002,M,-12.180,M,2.4,0000*57
  68749832, $GNGGA,190549.40,4028.8839032,N,10650.3441478,W,4,20,0.7,2110.879,M,-12.180,M,1.4,0000*52
  68750832, $GNGGA,190550.40,4028.8837034,N,10650.3436610,W,4,21,0.7,2110.731,M,-12.180,M,2.4,0000*5F
  68751832, $GNGGA,190551.40,4028.8834742,N,10650.3432523,W,4,21,0.7,2110.672,M,-12.180,M,1.4,0000*59
  68752833, $GNGGA,190552.40,4028.8832614,N,10650.3428204,W,4,20,0.7,2110.629,M,-12.180,M,2.4,0000*5B
  68753833, $GNGGA,190553.40,4028.8829900,N,10650.3424280,W,4,20,0.7,2110.669,M,-12.180,M,1.4,0000*5D
  68754833, $GNGGA,190554.40,4028.8827279,N,10650.3419491,W,4,21,0.7,2110.622,M,-12.180,M,2.4,0000*54
  68755832, $GNGGA,190555.40,4028.8825971,N,10650.3414205,W,4,21,0.7,2110.474,M,-12.180,M,1.4,0000*50
  68756831, $GNGGA,190556.40,4028.8824648,N,10650.3411597,W,4,21,0.7,2110.431,M,-12.180,M,2.4,0000*5C
  68757833, $GNGGA,190557.40,4028.8824251,N,10650.3410603,W,4,20,0.7,2110.415,M,-12.180,M,1.4,0000*5A
  68758833, $GNGGA,190558.40,4028.8823535,N,10650.3408729,W,4,21,0.7,2110.371,M,-12.180,M,2.4,0000*50
  68759833, $GNGGA,190559.40,4028.8820838,N,10650.3405648,W,4,20,0.7,2110.325,M,-12.180,M,1.4,0000*5A
  68760832, $GNGGA,190600.40,4028.8818633,N,10650.3401340,W,4,20,0.7,2110.245,M,-12.180,M,2.4,0000*56
  68761833, $GNGGA,190601.40,4028.8816545,N,10650.3396506,W,4,20,0.7,2110.175,M,-12.180,M,1.4,0000*55
  68762832, $GNGGA,190602.40,4028.8815177,N,10650.3392744,W,4,22,0.6,2110.219,M,-12.180,M,2.4,0000*59
  68763832, $GNGGA,190603.40,4028.8813569,N,10650.3386358,W,4,22,0.6,2110.209,M,-12.180,M,1.4,0000*5B
  68764832, $GNGGA,190604.40,4028.8812965,N,10650.3381060,W,4,20,0.7,2110.187,M,-12.180,M,2.4,0000*57
  68765831, $GNGGA,190605.40,4028.8812021,N,10650.3378557,W,4,21,0.7,2110.233,M,-12.180,M,1.4,0000*56
  68766831, $GNGGA,190606.40,4028.8812045,N,10650.3378596,W,4,20,0.7,2110.216,M,-12.180,M,2.4,0000*5F
  68767835, $GNGGA,190607.40,4028.8812059,N,10650.3378632,W,4,21,0.7,2110.212,M,-12.180,M,1.4,0000*58
  68768832, $GNGGA,190608.40,4028.8812051,N,10650.3378636,W,4,21,0.7,2110.229,M,-12.180,M,2.4,0000*50
  68769833, $GNGGA,190609.40,4028.8810921,N,10650.3378074,W,4,20,0.7,2110.408,M,-12.180,M,1.4,0000*5A
  68770834, $GNGGA,190610.40,4028.8812324,N,10650.3377240,W,4,21,0.7,2110.327,M,-12.180,M,2.4,0000*5D
  68771832, $GNGGA,190611.40,4028.8813342,N,10650.3377900,W,4,21,0.7,2110.257,M,-12.180,M,1.4,0000*57
  68772832, $GNGGA,190612.40,4028.8814250,N,10650.3379395,W,4,22,0.6,2110.154,M,-12.180,M,2.4,0000*58
  68773832, $GNGGA,190613.40,4028.8814892,N,10650.3378831,W,4,21,0.7,2110.101,M,-12.180,M,1.4,0000*58
  68774832, $GNGGA,190614.40,4028.8817294,N,10650.3377825,W,4,20,0.7,2109.860,M,-12.180,M,2.4,0000*5E
  68775832, $GNGGA,190615.40,4028.8819352,N,10650.3380871,W,4,21,0.7,2109.764,M,-12.180,M,1.4,0000*5A
  68776832, $GNGGA,190616.40,4028.8821996,N,10650.3384551,W,4,14,1.4,2109.601,M,-12.180,M,2.4,0000*5E
  68777834, $GNGGA,190617.40,4028.8824315,N,10650.3388063,W,4,20,0.7,2109.552,M,-12.180,M,1.4,0000*50
  68778832, $GNGGA,190618.40,4028.8827720,N,10650.3392484,W,4,20,0.8,2109.294,M,-12.180,M,2.4,0000*59
  68779832, $GNGGA,190619.40,4028.8830202,N,10650.3397808,W,4,22,0.6,2109.344,M,-12.180,M,1.4,0000*55
  68780832, $GNGGA,190620.40,4028.8832912,N,10650.3402557,W,4,20,0.7,2109.310,M,-12.180,M,2.4,0000*5A
  68781831, $GNGGA,190621.40,4028.8834233,N,10650.3405652,W,4,21,0.7,2109.393,M,-12.180,M,1.4,0000*5D
  68782830, $GNGGA,190622.40,4028.8835565,N,10650.3408360,W,4,20,0.7,2109.478,M,-12.180,M,2.4,0000*52
  68783836, $GNGGA,190623.40,4028.8837362,N,10650.3410699,W,4,20,0.7,2109.544,M,-12.180,M,1.4,0000*57
  68784834, $GNGGA,190624.40,4028.8838963,N,10650.3413779,W,4,20,0.7,2109.638,M,-12.180,M,2.4,0000*53
  68785831, $GNGGA,190625.40,4028.8841072,N,10650.3417785,W,4,20,0.7,2109.717,M,-12.180,M,1.4,0000*5D
  68786832, $GNGGA,190626.40,4028.8841958,N,10650.3421054,W,4,20,0.7,2109.830,M,-12.180,M,2.4,0000*58
  68787832, $GNGGA,190627.40,4028.8843278,N,10650.3424597,W,4,20,0.7,2109.931,M,-12.180,M,1.4,0000*5E
  68788832, $GNGGA,190628.40,4028.8844622,N,10650.3428798,W,4,21,0.7,2110.061,M,-12.180,M,2.4,0000*5A
  68789831, $GNGGA,190629.40,4028.8846195,N,10650.3433229,W,4,21,0.7,2110.134,M,-12.180,M,1.4,0000*55
  68790831, $GNGGA,190630.40,4028.8848590,N,10650.3437334,W,4,21,0.7,2110.198,M,-12.180,M,2.4,0000*5E
  68791831, $GNGGA,190631.40,4028.8850742,N,10650.3441953,W,4,21,0.7,2110.266,M,-12.180,M,1.4,0000*50
  68792829, $GNGGA,190632.40,4028.8852647,N,10650.3447053,W,4,21,0.7,2110.350,M,-12.180,M,2.4,0000*5D
  68793835, $GNGGA,190633.40,4028.8854150,N,10650.3451783,W,4,20,0.7,2110.427,M,-12.180,M,1.4,0000*53
  68794831, $GNGGA,190634.40,4028.8856078,N,10650.3455770,W,4,21,0.7,2110.538,M,-12.180,M,2.4,0000*58
  68795831, $GNGGA,190635.40,4028.8857586,N,10650.3459729,W,4,20,0.7,2110.590,M,-12.180,M,1.4,0000*5C
  68796831, $GNGGA,190636.40,4028.8858751,N,10650.3463613,W,4,19,0.7,2110.674,M,-12.180,M,2.4,0000*59
  68797831, $GNGGA,190637.40,4028.8860002,N,10650.3466386,W,4,21,0.7,2110.784,M,-12.180,M,1.4,0000*58
  68798831, $GNGGA,190638.40,4028.8861227,N,10650.3469127,W,4,19,0.7,2110.800,M,-12.180,M,2.4,0000*5E
  68799831, $GNGGA,190639.40,4028.8862333,N,10650.3471495,W,4,20,0.7,2110.813,M,-12.180,M,1.4,0000*56
  68800833, $GNGGA,190640.40,4028.8863652,N,10650.3474006,W,4,21,0.7,2110.798,M,-12.180,M,2.4,0000*5E
  68801831, $GNGGA,190641.40,4028.8865308,N,10650.3477020,W,4,21,0.7,2110.722,M,-12.180,M,1.4,0000*56
  68802830, $GNGGA,190642.40,4028.8865801,N,10650.3478476,W,4,21,0.7,2110.733,M,-12.180,M,2.4,0000*5C
  68803830, $GNGGA,190643.40,4028.8866297,N,10650.3479168,W,4,21,0.7,2110.699,M,-12.180,M,1.4,0000*52
  68804832, $GNGGA,190644.40,4028.8867307,N,10650.3480773,W,4,21,0.7,2110.615,M,-12.180,M,2.4,0000*51
  68805831, $GNGGA,190645.40,4028.8867374,N,10650.3480882,W,4,21,0.7,2110.599,M,-12.180,M,1.4,0000*51
  68806831, $GNGGA,190646.40,4028.8867396,N,10650.3480851,W,4,21,0.7,2110.592,M,-12.180,M,2.4,0000*58
  68807833, $GNGGA,190647.40,4028.8867415,N,10650.3480866,W,4,21,0.7,2110.601,M,-12.180,M,1.4,0000*5B
  68808833, $GNGGA,190648.40,4028.8867394,N,10650.3480897,W,4,21,0.7,2110.604,M,-12.180,M,2.4,0000*52
  68809834, $GNGGA,190649.40,4028.8867415,N,10650.3480927,W,4,21,0.7,2110.608,M,-12.180,M,1.4,0000*58
  68810830, $GNGGA,190650.40,4028.8867431,N,10650.3480993,W,4,21,0.7,2110.607,M,-12.180,M,2.4,0000*55
  68811830, $GNGGA,190651.40,4028.8867474,N,10650.3481092,W,4,21,0.7,2110.596,M,-12.180,M,1.4,0000*54
  68812831, $GNGGA,190652.40,4028.8867885,N,10650.3482373,W,4,21,0.7,2110.605,M,-12.180,M,2.4,0000*50
  68813830, $GNGGA,190653.40,4028.8868767,N,10650.3484169,W,4,21,0.7,2110.614,M,-12.180,M,1.4,0000*51
  68814831, $GNGGA,190654.40,4028.8869172,N,10650.3485906,W,4,21,0.7,2110.702,M,-12.180,M,2.4,0000*50
  68815830, $GNGGA,190655.40,4028.8870085,N,10650.3489712,W,4,22,0.6,2110.606,M,-12.180,M,1.4,0000*53
  68816830, $GNGGA,190656.40,4028.8871381,N,10650.3492978,W,4,22,0.6,2110.546,M,-12.180,M,2.4,0000*5A
  68817831, $GNGGA,190657.40,4028.8872405,N,10650.3496287,W,4,20,0.7,2110.574,M,-12.180,M,1.4,0000*5D
  68818832, $GNGGA,190658.40,4028.8873428,N,10650.3499115,W,4,21,0.7,2110.632,M,-12.180,M,2.4,0000*58
  68819829, $GNGGA,190659.40,4028.8874642,N,10650.3503188,W,4,22,0.6,2110.497,M,-12.180,M,1.4,0000*5A
  68820830, $GNGGA,190700.40,4028.8876466,N,10650.3506420,W,4,21,0.7,2110.419,M,-12.180,M,2.4,0000*54
  68821830, $GNGGA,190701.40,4028.8877865,N,10650.3509028,W,4,21,0.6,2110.452,M,-12.180,M,1.4,0000*55
  68822830, $GNGGA,190702.40,4028.8879968,N,10650.3513925,W,4,21,0.7,2110.299,M,-12.180,M,2.4,0000*58
  68823830, $GNGGA,190703.40,4028.8882268,N,10650.3518456,W,4,20,0.7,2110.160,M,-12.180,M,1.4,0000*53
  68824833, $GNGGA,190704.40,4028.8884191,N,10650.3522228,W,4,19,0.7,2110.085,M,-12.180,M,2.4,0000*52
  68825830, $GNGGA,190705.40,4028.8885344,N,10650.3524820,W,4,19,0.7,2110.075,M,-12.180,M,1.4,0000*50
  68826830, $GNGGA,190706.40,4028.8887347,N,10650.3528146,W,4,20,0.7,2110.067,M,-12.180,M,2.4,0000*5D
  68827830, $GNGGA,190707.40,4028.8889006,N,10650.3532454,W,4,18,0.9,2110.058,M,-12.180,M,1.4,0000*53
  68828828, $GNGGA,190708.40,4028.8890872,N,10650.3537003,W,4,20,0.7,2110.044,M,-12.180,M,2.4,0000*57
  68829828, $GNGGA,190709.40,4028.8892706,N,10650.3540113,W,4,19,0.8,2110.081,M,-12.180,M,1.4,0000*57
  68830830, $GNGGA,190710.40,4028.8894026,N,10650.3542484,W,4,19,0.8,2110.104,M,-12.180,M,2.4,0000*5A
  68831829, $GNGGA,190711.40,4028.8893441,N,10650.3544880,W,4,19,0.8,2110.302,M,-12.180,M,1.4,0000*50
  68832830, $GNGGA,190712.40,4028.8894485,N,10650.3547337,W,4,19,0.8,2110.552,M,-12.180,M,2.4,0000*58
  68833831, $GNGGA,190713.40,4028.8895520,N,10650.3549450,W,4,19,0.8,2110.759,M,-12.180,M,1.4,0000*54
  68834831, $GNGGA,190714.40,4028.8897625,N,10650.3551964,W,4,18,0.8,2110.814,M,-12.180,M,2.4,0000*50
  68835829, $GNGGA,190715.40,4028.8898341,N,10650.3553587,W,4,19,0.8,2110.853,M,-12.180,M,1.4,0000*5B
  68836831, $GNGGA,190716.40,4028.8898401,N,10650.3554534,W,4,19,0.8,2110.904,M,-12.180,M,2.4,0000*54
  68837828, $GNGGA,190717.40,4028.8898488,N,10650.3554768,W,4,19,0.8,2110.898,M,-12.180,M,1.4,0000*58
  68838830, $GNGGA,190718.40,4028.8899415,N,10650.3555324,W,4,19,0.8,2111.018,M,-12.180,M,2.4,0000*5D
  68839829, $GNGGA,190719.40,4028.8900320,N,10650.3555869,W,4,19,0.8,2111.070,M,-12.180,M,1.4,0000*53
  68840830, $GNGGA,190720.40,4028.8901457,N,10650.3557240,W,4,17,0.9,2111.116,M,-12.180,M,2.4,0000*51
  68841829, $GNGGA,190721.40,4028.8902851,N,10650.3558623,W,4,18,0.8,2111.108,M,-12.180,M,1.4,0000*55
  68842831, $GNGGA,190722.40,4028.8903271,N,10650.3559850,W,4,18,0.8,2111.181,M,-12.180,M,2.4,0000*56
  68843828, $GNGGA,190723.40,4028.8904627,N,10650.3561831,W,4,17,0.9,2111.216,M,-12.180,M,1.4,0000*5B
  68844829, $GNGGA,190724.40,4028.8905101,N,10650.3563493,W,4,17,0.9,2111.326,M,-12.180,M,2.4,0000*59
  68845829, $GNGGA,190725.40,4028.8906515,N,10650.3565138,W,4,18,0.8,2111.393,M,-12.180,M,1.4,0000*5B
  68846829, $GNGGA,190726.40,4028.8908696,N,10650.3567812,W,4,17,1.0,2111.367,M,-12.180,M,2.4,0000*53
  68847830, $GNGGA,190727.40,4028.8910176,N,10650.3570303,W,4,19,0.8,2111.457,M,-12.180,M,1.4,0000*5F
  68848830, $GNGGA,190728.40,4028.8911155,N,10650.3571799,W,4,19,0.8,2111.471,M,-12.180,M,2.4,0000*51
  68849829, $GNGGA,190729.40,4028.8913059,N,10650.3574812,W,4,17,1.0,2111.469,M,-12.180,M,1.4,0000*5B
  68850831, $GNGGA,190730.40,4028.8914379,N,10650.3577517,W,4,18,0.9,2111.517,M,-12.180,M,2.4,0000*52
  68851829, $GNGGA,190731.40,4028.8915394,N,10650.3579858,W,4,17,1.0,2111.563,M,-12.180,M,1.4,0000*5E
  68852829, $GNGGA,190732.40,4028.8916804,N,10650.3582333,W,4,19,0.8,2111.560,M,-12.180,M,2.4,0000*59
  68853829, $GNGGA,190733.40,4028.8917567,N,10650.3582911,W,4,17,1.0,2111.529,M,-12.180,M,1.4,0000*52
  68854828, $GNGGA,190734.40,4028.8916941,N,10650.3583135,W,4,18,0.8,2111.740,M,-12.180,M,2.4,0000*5B
  68855828, $GNGGA,190735.40,4028.8917549,N,10650.3584195,W,4,17,0.9,2111.769,M,-12.180,M,1.4,0000*54
  68856828, $GNGGA,190736.40,4028.8918474,N,10650.3583731,W,4,17,0.7,2111.724,M,-12.180,M,2.4,0000*5C
  68857829, $GNGGA,190737.40,4028.8919148,N,10650.3581501,W,4,19,0.7,2111.638,M,-12.180,M,1.4,0000*54
  68858828, $GNGGA,190738.40,4028.8918292,N,10650.3579164,W,4,18,0.7,2111.534,M,-12.180,M,2.4,0000*53
  68859828, $GNGGA,190739.40,4028.8916902,N,10650.3577635,W,4,17,0.8,2111.450,M,-12.180,M,1.4,0000*53
  68860830, $GNGGA,190740.40,4028.8916746,N,10650.3576164,W,4,19,0.7,2111.376,M,-12.180,M,2.4,0000*50
  68861828, $GNGGA,190741.40,4028.8917303,N,10650.3575049,W,4,16,1.2,2111.230,M,-12.180,M,1.4,0000*53
  68862829, $GNGGA,190742.40,4028.8917137,N,10650.3574980,W,4,16,1.2,2111.234,M,-12.180,M,2.4,0000*5F
  68863828, $GNGGA,190743.40,4028.8915843,N,10650.3572976,W,4,16,0.7,2111.232,M,-12.180,M,1.4,0000*58
  68864828, $GNGGA,190744.40,4028.8915317,N,10650.3571120,W,4,16,1.2,2111.154,M,-12.180,M,2.4,0000*59
  68865829, $GNGGA,190745.40,4028.8913715,N,10650.3567716,W,4,17,1.0,2111.107,M,-12.180,M,1.4,0000*5A
  68866827, $GNGGA,190746.40,4028.8911921,N,10650.3565061,W,4,16,1.0,2111.078,M,-12.180,M,2.4,0000*5C
  68867828, $GNGGA,190747.40,4028.8910123,N,10650.3561890,W,4,17,1.0,2110.967,M,-12.180,M,1.4,0000*50
  68868828, $GNGGA,190748.40,4028.8908851,N,10650.3558849,W,4,16,1.0,2110.841,M,-12.180,M,2.4,0000*53
  68869825, $GNGGA,190749.40,4028.8907267,N,10650.3557455,W,4,17,0.8,2110.888,M,-12.180,M,1.4,0000*52
  68870827, $GNGGA,190750.40,4028.8906050,N,10650.3554893,W,4,18,0.8,2110.838,M,-12.180,M,2.4,0000*5F
  68871827, $GNGGA,190751.40,4028.8902984,N,10650.3553205,W,4,18,0.8,2110.668,M,-12.180,M,1.4,0000*50
  68872826, $GNGGA,190752.40,4028.8901715,N,10650.3552522,W,4,18,0.8,2110.460,M,-12.180,M,2.4,0000*5C
  68873825, $GNGGA,190753.40,4028.8901449,N,10650.3550241,W,4,17,1.0,2110.402,M,-12.180,M,1.4,0000*56
  68874829, $GNGGA,190754.40,4028.8900516,N,10650.3547472,W,4,17,0.9,2110.291,M,-12.180,M,2.4,0000*5C
  68875828, $GNGGA,190755.40,4028.8899705,N,10650.3544966,W,4,18,0.8,2110.193,M,-12.180,M,1.4,0000*5B
  68876829, $GNGGA,190756.40,4028.8898133,N,10650.3543145,W,4,18,0.9,2110.028,M,-12.180,M,2.4,0000*57
  68877827, $GNGGA,190757.40,4028.8898814,N,10650.3542309,W,4,18,0.8,2109.915,M,-12.180,M,1.4,0000*5C
  68878827, $GNGGA,190758.40,4028.8898853,N,10650.3541017,W,4,19,0.8,2109.782,M,-12.180,M,2.4,0000*5D
  68879828, $GNGGA,190759.40,4028.8898410,N,10650.3538943,W,4,19,0.8,2109.650,M,-12.180,M,1.4,0000*5C
  68880828, $GNGGA,190800.40,4028.8897885,N,10650.3536890,W,4,19,0.8,2109.553,M,-12.180,M,2.4,0000*52
  68881828, $GNGGA,190801.40,4028.8896543,N,10650.3534336,W,4,17,1.0,2109.557,M,-12.180,M,1.4,0000*50
  68882827, $GNGGA,190802.40,4028.8896383,N,10650.3532974,W,4,17,1.0,2109.570,M,-12.180,M,2.4,0000*55
  68883826, $GNGGA,190803.40,4028.8895978,N,10650.3531689,W,4,18,0.9,2109.547,M,-12.180,M,1.4,0000*57
  68884827, $GNGGA,190804.40,4028.8894724,N,10650.3531202,W,4,18,0.9,2109.702,M,-12.180,M,2.4,0000*51
  68885829, $GNGGA,190805.40,4028.8892768,N,10650.3528360,W,4,18,0.8,2109.662,M,-12.180,M,1.4,0000*56
  68886828, $GNGGA,190806.40,4028.8890089,N,10650.3524214,W,4,20,0.7,2109.647,M,-12.180,M,2.4,0000*51
  68887828, $GNGGA,190807.40,4028.8888831,N,10650.3518633,W,4,20,0.7,2109.689,M,-12.180,M,1.4,0000*5D
  68888828, $GNGGA,190808.40,4028.8887541,N,10650.3514395,W,4,18,0.7,2109.670,M,-12.180,M,2.4,0000*5C
  68889828, $GNGGA,190809.40,4028.8884559,N,10650.3510729,W,4,20,0.7,2109.832,M,-12.180,M,1.4,0000*50
  68890830, $GNGGA,190810.40,4028.8882946,N,10650.3505307,W,4,20,0.7,2109.961,M,-12.180,M,2.4,0000*54
  68891828, $GNGGA,190811.40,4028.8880644,N,10650.3501324,W,4,20,0.7,2110.052,M,-12.180,M,1.4,0000*5D
  68892830, $GNGGA,190812.40,4028.8878554,N,10650.3496867,W,4,20,0.7,2110.047,M,-12.180,M,2.4,0000*5F
  68893828, $GNGGA,190813.40,4028.8876607,N,10650.3492909,W,4,19,0.8,2110.017,M,-12.180,M,1.4,0000*5B
  68894828, $GNGGA,190814.40,4028.8875161,N,10650.3490802,W,4,20,0.7,2110.119,M,-12.180,M,2.4,0000*59
  68895828, $GNGGA,190815.40,4028.8872957,N,10650.3488754,W,4,20,0.7,2110.250,M,-12.180,M,1.4,0000*5A
  68896830, $GNGGA,190816.40,4028.8871610,N,10650.3486111,W,4,20,0.7,2110.252,M,-12.180,M,2.4,0000*5E
  68897829, $GNGGA,190817.40,4028.8870535,N,10650.3483521,W,4,20,0.7,2110.262,M,-12.180,M,1.4,0000*58
  68898829, $GNGGA,190818.40,4028.8868222,N,10650.3481243,W,4,21,0.7,2110.336,M,-12.180,M,2.4,0000*5C
  68899828, $GNGGA,190819.40,4028.8868677,N,10650.3479137,W,4,21,0.7,2110.344,M,-12.180,M,1.4,0000*58
  68900828, $GNGGA,190820.40,4028.8868978,N,10650.3478685,W,4,21,0.7,2110.309,M,-12.180,M,2.4,0000*57
  68901828, $GNGGA,190821.40,4028.8868102,N,10650.3477551,W,4,19,0.7,2110.376,M,-12.180,M,1.4,0000*56
  68902829, $GNGGA,190822.40,4028.8867532,N,10650.3475409,W,4,21,0.7,2110.383,M,-12.180,M,2.4,0000*51
  68903829, $GNGGA,190823.40,4028.8865678,N,10650.3473042,W,4,21,0.7,2110.447,M,-12.180,M,1.4,0000*5E
  68904830, $GNGGA,190824.40,4028.8863878,N,10650.3470022,W,4,20,0.7,2110.438,M,-12.180,M,2.4,0000*5E
  68905833, $GNGGA,190825.40,4028.8862325,N,10650.3466223,W,4,20,0.7,2110.399,M,-12.180,M,1.4,0000*56
  68906829, $GNGGA,190826.40,4028.8860675,N,10650.3462299,W,4,20,0.7,2110.382,M,-12.180,M,2.4,0000*5B
  68907829, $GNGGA,190827.40,4028.8858943,N,10650.3456879,W,4,20,0.7,2110.279,M,-12.180,M,1.4,0000*5E
  68908831, $GNGGA,190828.40,4028.8856583,N,10650.3452559,W,4,20,0.7,2110.298,M,-12.180,M,2.4,0000*58
  68909829, $GNGGA,190829.40,4028.8854205,N,10650.3449438,W,4,20,0.7,2110.375,M,-12.180,M,1.4,0000*5F
  68910829, $GNGGA,190830.40,4028.8851915,N,10650.3446084,W,4,21,0.7,2110.351,M,-12.180,M,2.4,0000*50
  68911829, $GNGGA,190831.40,4028.8849431,N,10650.3440963,W,4,21,0.7,2110.283,M,-12.180,M,1.4,0000*58
  68912829, $GNGGA,190832.40,4028.8846152,N,10650.3436518,W,4,21,0.7,2110.325,M,-12.180,M,2.4,0000*5B
  68913830, $GNGGA,190833.40,4028.8843352,N,10650.3431643,W,4,20,0.7,2110.244,M,-12.180,M,1.4,0000*53
  68914828, $GNGGA,190834.40,4028.8839909,N,10650.3426621,W,4,19,0.7,2110.161,M,-12.180,M,2.4,0000*52
  68915829, $GNGGA,190835.40,4028.8836845,N,10650.3419594,W,4,19,0.7,2110.003,M,-12.180,M,1.4,0000*52
  68916828, $GNGGA,190836.40,4028.8834590,N,10650.3412922,W,4,19,0.8,2109.745,M,-12.180,M,2.4,0000*5D
  68917830, $GNGGA,190837.40,4028.8830618,N,10650.3409262,W,4,19,0.8,2109.682,M,-12.180,M,1.4,0000*57
  68918830, $GNGGA,190838.40,4028.8828143,N,10650.3405308,W,4,20,0.7,2109.841,M,-12.180,M,2.4,0000*5E
  68919830, $GNGGA,190839.40,4028.8825161,N,10650.3399855,W,4,21,0.7,2109.768,M,-12.180,M,1.4,0000*55
  68920833, $GNGGA,190840.40,4028.8822560,N,10650.3392865,W,4,20,0.7,2109.723,M,-12.180,M,2.4,0000*5C
  68921830, $GNGGA,190841.40,4028.8820928,N,10650.3387963,W,4,20,0.7,2109.860,M,-12.180,M,1.4,0000*57
  68922829, $GNGGA,190842.40,4028.8818513,N,10650.3382093,W,4,21,0.7,2109.790,M,-12.180,M,2.4,0000*5A
  68923830, $GNGGA,190843.40,4028.8817660,N,10650.3376166,W,4,20,0.7,2109.789,M,-12.180,M,1.4,0000*59
  68924828, $GNGGA,190844.40,4028.8817146,N,10650.3372331,W,4,18,0.8,2109.681,M,-12.180,M,2.4,0000*57
  68925827, $GNGGA,190845.40,4028.8817045,N,10650.3371566,W,4,20,0.7,2109.691,M,-12.180,M,1.4,0000*55
  68926830, $GNGGA,190846.40,4028.8817039,N,10650.3371603,W,4,19,0.7,2109.692,M,-12.180,M,2.4,0000*57
  68927828, $GNGGA,190847.40,4028.8817041,N,10650.3371603,W,4,19,0.7,2109.680,M,-12.180,M,1.4,0000*59
  68928829, $GNGGA,190848.40,4028.8817043,N,10650.3371613,W,4,19,0.7,2109.678,M,-12.180,M,2.4,0000*51
  68929827, $GNGGA,190849.40,4028.8817034,N,10650.3371616,W,4,20,0.7,2109.683,M,-12.180,M,1.4,0000*58
  68930830, $GNGGA,190850.40,4028.8817040,N,10650.3371610,W,4,20,0.7,2109.687,M,-12.180,M,2.4,0000*52
  68931830, $GNGGA,190851.40,4028.8817023,N,10650.3371601,W,4,20,0.7,2109.686,M,-12.180,M,1.4,0000*54
  68932833, $GNGGA,190852.40,4028.8817024,N,10650.3371584,W,4,20,0.7,2109.677,M,-12.180,M,2.4,0000*53
  68933829, $GNGGA,190853.40,4028.8817111,N,10650.3371520,W,4,20,0.7,2109.690,M,-12.180,M,1.4,0000*51
  68934828, $GNGGA,190854.40,4028.8817331,N,10650.3371766,W,4,20,0.7,2109.756,M,-12.180,M,2.4,0000*5E
  68935830, $GNGGA,190855.40,4028.8817274,N,10650.3372255,W,4,21,0.7,2109.817,M,-12.180,M,1.4,0000*51
  68936828, $GNGGA,190856.40,4028.8818806,N,10650.3371240,W,4,21,0.7,2109.728,M,-12.180,M,2.4,0000*55
  68937828, $GNGGA,190857.40,4028.8819940,N,10650.3372711,W,4,21,0.7,2109.681,M,-12.180,M,1.4,0000*55
  68938828, $GNGGA,190858.40,4028.8819395,N,10650.3373906,W,4,20,0.7,2109.653,M,-12.180,M,2.4,0000*5C
  68939828, $GNGGA,190859.40,4028.8819727,N,10650.3372917,W,4,21,0.7,2109.554,M,-12.180,M,1.4,0000*57
  68940828, $GNGGA,190900.40,4028.8819755,N,10650.3373000,W,4,20,0.7,2109.561,M,-12.180,M,2.4,0000*55
  68941830, $GNGGA,190901.40,4028.8819962,N,10650.3373201,W,4,20,0.7,2109.546,M,-12.180,M,1.4,0000*5B
  68942832, $GNGGA,190902.40,4028.8820318,N,10650.3373496,W,4,20,0.7,2109.530,M,-12.180,M,2.4,0000*5F
  68943829, $GNGGA,190903.40,4028.8820363,N,10650.3373629,W,4,20,0.7,2109.552,M,-12.180,M,1.4,0000*53
  68944829, $GNGGA,190904.40,4028.8820223,N,10650.3374057,W,4,21,0.7,2109.552,M,-12.180,M,2.4,0000*5B
  68945827, $GNGGA,190905.40,4028.8820424,N,10650.3374277,W,4,21,0.7,2109.553,M,-12.180,M,1.4,0000*59
  68946829, $GNGGA,190906.40,4028.8820439,N,10650.3374253,W,4,21,0.7,2109.538,M,-12.180,M,2.4,0000*5E
  68947827, $GNGGA,190907.40,4028.8820563,N,10650.3374474,W,4,22,0.6,2109.542,M,-12.180,M,1.4,0000*5E
  68948828, $GNGGA,190908.40,4028.8821050,N,10650.3375416,W,4,21,0.7,2109.528,M,-12.180,M,2.4,0000*5D
  68949829, $GNGGA,190909.40,4028.8821831,N,10650.3376272,W,4,21,0.7,2109.513,M,-12.180,M,1.4,0000*5F
  68950828, $GNGGA,190910.40,4028.8822295,N,10650.3376892,W,4,20,0.7,2109.482,M,-12.180,M,2.4,0000*5F
  68951829, $GNGGA,190911.40,4028.8822534,N,10650.3377151,W,4,20,0.7,2109.457,M,-12.180,M,1.4,0000*5E
  68952829, $GNGGA,190912.40,4028.8822529,N,10650.3377186,W,4,20,0.7,2109.456,M,-12.180,M,2.4,0000*59
  68953828, $GNGGA,190913.40,4028.8822556,N,10650.3377161,W,4,20,0.7,2109.470,M,-12.180,M,1.4,0000*5E
  68954827, $GNGGA,190914.40,4028.8822608,N,10650.3377240,W,4,20,0.7,2109.461,M,-12.180,M,2.4,0000*52
  68955836, $GNGGA,190915.40,4028.8822592,N,10650.3377250,W,4,20,0.7,2109.470,M,-12.180,M,1.4,0000*51
  68956830, $GNGGA,190916.40,4028.8822610,N,10650.3377414,W,4,20,0.7,2109.459,M,-12.180,M,2.4,0000*55
  68957828, $GNGGA,190917.40,4028.8822724,N,10650.3377508,W,4,20,0.7,2109.459,M,-12.180,M,1.4,0000*5D
  68958829, $GNGGA,190918.40,4028.8822746,N,10650.3377514,W,4,20,0.7,2109.458,M,-12.180,M,2.4,0000*59
  68959830, $GNGGA,190919.40,4028.8822742,N,10650.3377510,W,4,20,0.7,2109.450,M,-12.180,M,1.4,0000*53
  68960829, $GNGGA,190920.40,4028.8822748,N,10650.3377506,W,4,20,0.7,2109.450,M,-12.180,M,2.4,0000*57
  68961829, $GNGGA,190921.40,4028.8822756,N,10650.3377521,W,4,20,0.7,2109.458,M,-12.180,M,1.4,0000*57
  68962830, $GNGGA,190922.40,4028.8822751,N,10650.3377517,W,4,20,0.7,2109.457,M,-12.180,M,2.4,0000*5A
  68963828, $GNGGA,190923.40,4028.8822754,N,10650.3377529,W,4,20,0.7,2109.454,M,-12.180,M,1.4,0000*53
  68964830, $GNGGA,190924.40,4028.8822769,N,10650.3377534,W,4,20,0.7,2109.461,M,-12.180,M,2.4,0000*53
  68965828, $GNGGA,190925.40,4028.8822766,N,10650.3377531,W,4,20,0.7,2109.455,M,-12.180,M,1.4,0000*5C
  68966831, $GNGGA,190926.40,4028.8822930,N,10650.3377603,W,4,20,0.7,2109.435,M,-12.180,M,2.4,0000*55
  68967828, $GNGGA,190927.40,4028.8823337,N,10650.3377925,W,4,20,0.7,2109.414,M,-12.180,M,1.4,0000*53
  68968827, $GNGGA,190928.40,4028.8823166,N,10650.3378084,W,4,19,0.7,2109.420,M,-12.180,M,2.4,0000*59
  68969827, $GNGGA,190929.40,4028.8824286,N,10650.3380001,W,4,20,0.7,2109.364,M,-12.180,M,1.4,0000*56
  68970829, $GNGGA,190930.40,4028.8826256,N,10650.3383198,W,4,20,0.7,2109.277,M,-12.180,M,2.4,0000*53
  68971826, $GNGGA,190931.40,4028.8829200,N,10650.3387840,W,4,20,0.7,2109.146,M,-12.180,M,1.4,0000*54
  68972826, $GNGGA,190932.40,4028.8832060,N,10650.3394543,W,4,21,0.7,2109.143,M,-12.180,M,2.4,0000*52
  68973828, $GNGGA,190933.40,4028.8835613,N,10650.3401057,W,4,20,0.7,2109.164,M,-12.180,M,1.4,0000*5A
  68974828, $GNGGA,190934.40,4028.8839684,N,10650.3406349,W,4,20,0.7,2109.178,M,-12.180,M,2.4,0000*5A
  68975828, $GNGGA,190935.40,4028.8842264,N,10650.3411072,W,4,20,0.7,2109.203,M,-12.180,M,1.4,0000*5C
  68976828, $GNGGA,190936.40,4028.8844380,N,10650.3415101,W,4,20,0.7,2109.273,M,-12.180,M,2.4,0000*57
  68977827, $GNGGA,190937.40,4028.8846236,N,10650.3419175,W,4,20,0.7,2109.374,M,-12.180,M,1.4,0000*52
  68978828, $GNGGA,190938.40,4028.8847375,N,10650.3421683,W,4,19,0.7,2109.427,M,-12.180,M,2.4,0000*57
  68979828, $GNGGA,190939.40,4028.8849205,N,10650.3424051,W,4,19,0.7,2109.413,M,-12.180,M,1.4,0000*56
  68980827, $GNGGA,190940.40,4028.8850765,N,10650.3427677,W,4,19,0.7,2109.485,M,-12.180,M,2.4,0000*5E
  68981828, $GNGGA,190941.40,4028.8852213,N,10650.3430771,W,4,20,0.7,2109.537,M,-12.180,M,1.4,0000*59
  68982827, $GNGGA,190942.40,4028.8854240,N,10650.3433629,W,4,21,0.7,2109.561,M,-12.180,M,2.4,0000*54
  68983827, $GNGGA,190943.40,4028.8857113,N,10650.3437535,W,4,19,0.7,2109.568,M,-12.180,M,1.4,0000*58
  68984826, $GNGGA,190944.40,4028.8859636,N,10650.3441434,W,4,19,0.7,2109.569,M,-12.180,M,2.4,0000*52
  68985827, $GNGGA,190945.40,4028.8862026,N,10650.3446165,W,4,22,0.6,2109.614,M,-12.180,M,1.4,0000*59
  68986827, $GNGGA,190946.40,4028.8864583,N,10650.3449909,W,4,20,0.7,2109.555,M,-12.180,M,2.4,0000*5D
  68987827, $GNGGA,190947.40,4028.8866467,N,10650.3453486,W,4,20,0.7,2109.590,M,-12.180,M,1.4,0000*5E
  68988827, $GNGGA,190948.40,4028.8868445,N,10650.3455930,W,4,20,0.7,2109.548,M,-12.180,M,2.4,0000*5F
  68989828, $GNGGA,190949.40,4028.8870724,N,10650.3459337,W,4,21,0.7,2109.414,M,-12.180,M,1.4,0000*58
  68990825, $GNGGA,190950.40,4028.8871588,N,10650.3461921,W,4,21,0.7,2109.413,M,-12.180,M,2.4,0000*57
  68991827, $GNGGA,190951.40,4028.8872708,N,10650.3464546,W,4,21,0.7,2109.418,M,-12.180,M,1.4,0000*5F
  68992827, $GNGGA,190952.40,4028.8874312,N,10650.3466883,W,4,21,0.7,2109.365,M,-12.180,M,2.4,0000*5D
  68993827, $GNGGA,190953.40,4028.8876067,N,10650.3472019,W,4,20,0.7,2109.295,M,-12.180,M,1.4,0000*5D
  68994830, $GNGGA,190954.40,4028.8877597,N,10650.3475929,W,4,21,0.7,2109.310,M,-12.180,M,2.4,0000*52
  68995828, $GNGGA,190955.40,4028.8879998,N,10650.3480136,W,4,21,0.7,2109.217,M,-12.180,M,1.4,0000*57
  68996828, $GNGGA,190956.40,4028.8881160,N,10650.3484034,W,4,21,0.7,2109.246,M,-12.180,M,2.4,0000*5C
  68997827, $GNGGA,190957.40,4028.8881812,N,10650.3484081,W,4,21,0.7,2109.205,M,-12.180,M,1.4,0000*5B
  68998828, $GNGGA,190958.40,4028.8881834,N,10650.3484411,W,4,21,0.7,2109.203,M,-12.180,M,2.4,0000*58
  68999825, $GNGGA,190959.40,4028.8881711,N,10650.3484553,W,4,20,0.7,2109.229,M,-12.180,M,1.4,0000*5C
  69000830, $GNGGA,191000.40,4028.8882662,N,10650.3486264,W,4,21,0.7,2109.256,M,-12.180,M,2.4,0000*55
  69001827, $GNGGA,191001.40,4028.8883517,N,10650.3487557,W,4,20,0.7,2109.221,M,-12.180,M,1.4,0000*50
  69002827, $GNGGA,191002.40,4028.8883886,N,10650.3490543,W,4,21,0.7,2109.277,M,-12.180,M,2.4,0000*54
  69003827, $GNGGA,191003.40,4028.8884677,N,10650.3493656,W,4,20,0.7,2109.345,M,-12.180,M,1.4,0000*54
  69004827, $GNGGA,191004.40,4028.8885946,N,10650.3496268,W,4,19,0.7,2109.364,M,-12.180,M,2.4,0000*59
  69005826, $GNGGA,191005.40,4028.8887209,N,10650.3499610,W,4,20,0.7,2109.390,M,-12.180,M,1.4,0000*5C
  69006827, $GNGGA,191006.40,4028.8889020,N,10650.3501849,W,4,20,0.7,2109.306,M,-12.180,M,2.4,0000*56
  69007827, $GNGGA,191007.40,4028.8890350,N,10650.3506187,W,4,21,0.7,2109.299,M,-12.180,M,1.4,0000*52
  69008827, $GNGGA,191008.40,4028.8891788,N,10650.3509640,W,4,19,0.7,2109.296,M,-12.180,M,2.4,0000*59
  69009825, $GNGGA,191009.40,4028.8893781,N,10650.3513023,W,4,20,0.7,2109.156,M,-12.180,M,1.4,0000*5D
  69010827, $GNGGA,191010.40,4028.8894275,N,10650.3516457,W,4,18,0.7,2109.295,M,-12.180,M,2.4,0000*5A
  69011827, $GNGGA,191011.40,4028.8895953,N,10650.3521606,W,4,18,0.7,2109.306,M,-12.180,M,1.4,0000*5F
  69012828, $GNGGA,191012.40,4028.8897058,N,10650.3525874,W,4,18,0.7,2109.397,M,-12.180,M,2.4,0000*58
  69013828, $GNGGA,191013.40,4028.8899072,N,10650.3529154,W,4,22,0.6,2109.483,M,-12.180,M,1.4,0000*51
  69014828, $GNGGA,191014.40,4028.8899770,N,10650.3532813,W,4,21,0.7,2109.497,M,-12.180,M,2.4,0000*57
  69015829, $GNGGA,191015.40,4028.8901741,N,10650.3536120,W,4,17,0.7,2109.466,M,-12.180,M,1.4,0000*51
  69016829, $GNGGA,191016.40,4028.8902316,N,10650.3538965,W,4,18,0.7,2109.596,M,-12.180,M,2.4,0000*52
  69017830, $GNGGA,191017.40,4028.8903116,N,10650.3541839,W,4,17,1.0,2109.758,M,-12.180,M,1.4,0000*5C
  69018829, $GNGGA,191018.40,4028.8903505,N,10650.3542628,W,4,18,0.9,2109.916,M,-12.180,M,2.4,0000*58
  69019829, $GNGGA,191019.40,4028.8903596,N,10650.3542780,W,4,18,0.8,2109.947,M,-12.180,M,1.4,0000*56
  69020831, $GNGGA,191020.40,4028.8903642,N,10650.3542854,W,4,18,0.9,2109.947,M,-12.180,M,2.4,0000*52
  69021828, $GNGGA,191021.40,4028.8903080,N,10650.3543774,W,4,19,0.7,2110.225,M,-12.180,M,1.4,0000*5C
  69022830, $GNGGA,191022.40,4028.8904571,N,10650.3546946,W,4,18,0.7,2110.415,M,-12.180,M,2.4,0000*5E
  69023829, $GNGGA,191023.40,4028.8906671,N,10650.3550383,W,4,18,0.9,2110.518,M,-12.180,M,1.4,0000*5B
  69024829, $GNGGA,191024.40,4028.8909024,N,10650.3552194,W,4,18,0.9,2110.555,M,-12.180,M,2.4,0000*59
  69025852, $GNGGA,191025.40,4028.8910640,N,10650.3555452,W,4,17,1.0,2110.601,M,-12.180,M,1.4,0000*5A
  69026826, $GNGGA,191026.40,4028.8911063,N,10650.3558718,W,4,18,0.8,2110.811,M,-12.180,M,2.4,0000*55
  69027827, $GNGGA,191027.40,4028.8912227,N,10650.3557007,W,4,18,0.8,2110.641,M,-12.180,M,1.4,0000*5B
  69028826, $GNGGA,191028.40,4028.8913027,N,10650.3558159,W,4,19,0.7,2110.672,M,-12.180,M,2.4,0000*5F
  69029826, $GNGGA,191029.40,4028.8914660,N,10650.3561442,W,4,19,0.7,2110.806,M,-12.180,M,1.4,0000*57
  69030829, $GNGGA,191030.40,4028.8916008,N,10650.3563624,W,4,17,1.0,2110.822,M,-12.180,M,2.4,0000*58
  69031827, $GNGGA,191031.40,4028.8917203,N,10650.3565979,W,4,20,0.7,2110.902,M,-12.180,M,1.4,0000*52
  69032828, $GNGGA,191032.40,4028.8919210,N,10650.3568628,W,4,20,0.7,2110.928,M,-12.180,M,2.4,0000*50
  69033827, $GNGGA,191033.40,4028.8921880,N,10650.3568828,W,4,18,0.9,2110.802,M,-12.180,M,1.4,0000*58
  69034830, $GNGGA,191034.40,4028.8922716,N,10650.3568574,W,4,17,0.7,2110.714,M,-12.180,M,2.4,0000*52
  69035826, $GNGGA,191035.40,4028.8922967,N,10650.3568043,W,4,18,0.7,2110.578,M,-12.180,M,1.4,0000*5E
  69036824, $GNGGA,191036.40,4028.8922708,N,10650.3567263,W,4,14,1.0,2110.512,M,-12.180,M,2.4,0000*50
  69037824, $GNGGA,191037.40,4028.8922893,N,10650.3567288,W,4,15,0.8,2110.488,M,-12.180,M,1.4,0000*50
  69038825, $GNGGA,191038.40,4028.8922606,N,10650.3567318,W,4,17,0.9,2110.536,M,-12.180,M,2.4,0000*51
  69039829, $GNGGA,191039.40,4028.8922231,N,10650.3565862,W,4,19,0.7,2110.546,M,-12.180,M,1.4,0000*50
  69040832, $GNGGA,191040.40,4028.8922316,N,10650.3567135,W,4,18,0.9,2110.696,M,-12.180,M,2.4,0000*51
  69041826, $GNGGA,191041.40,4028.8923383,N,10650.3571848,W,4,19,0.8,2110.723,M,-12.180,M,1.4,0000*55
  69042828, $GNGGA,191042.40,4028.8923343,N,10650.3571577,W,4,19,0.7,2110.863,M,-12.180,M,2.4,0000*5C
  69043827, $GNGGA,191043.40,4028.8922786,N,10650.3571571,W,4,19,0.7,2110.975,M,-12.180,M,1.4,0000*52
  69044825, $GNGGA,191044.40,4028.8921527,N,10650.3571464,W,4,18,0.8,2111.193,M,-12.180,M,2.4,0000*56
  69045827, $GNGGA,191045.40,4028.8920540,N,10650.3571757,W,4,18,0.8,2111.071,M,-12.180,M,1.4,0000*5A
  69046826, $GNGGA,191046.40,4028.8920794,N,10650.3571959,W,4,19,0.8,2110.909,M,-12.180,M,2.4,0000*57
  69047830, $GNGGA,191047.40,4028.8921042,N,10650.3572092,W,4,18,0.8,2110.896,M,-12.180,M,1.4,0000*53
  69048832, $GNGGA,191048.40,4028.8921130,N,10650.3572085,W,4,18,0.9,2110.893,M,-12.180,M,2.4,0000*59
  69049826, $GNGGA,191049.40,4028.8920987,N,10650.3571979,W,4,17,0.9,2110.889,M,-12.180,M,1.4,0000*53
  69050827, $GNGGA,191050.40,4028.8920994,N,10650.3571962,W,4,18,0.8,2110.888,M,-12.180,M,2.4,0000*5F
  69051825, $GNGGA,191051.40,4028.8921146,N,10650.3572114,W,4,18,0.8,2110.913,M,-12.180,M,1.4,0000*52
  69052827, $GNGGA,191052.40,4028.8921394,N,10650.3571718,W,4,19,0.8,2110.825,M,-12.180,M,2.4,0000*53
  69053825, $GNGGA,191053.40,4028.8923168,N,10650.3571310,W,4,19,0.8,2110.678,M,-12.180,M,1.4,0000*58
  69054827, $GNGGA,191054.40,4028.8924755,N,10650.3570297,W,4,18,0.7,2110.507,M,-12.180,M,2.4,0000*59
  69055828, $GNGGA,191055.40,4028.8925400,N,10650.3569638,W,4,18,0.8,2110.434,M,-12.180,M,1.4,0000*5E
  69056828, $GNGGA,191056.40,4028.8925474,N,10650.3569624,W,4,19,0.7,2110.431,M,-12.180,M,2.4,0000*5B
  69057828, $GNGGA,191057.40,4028.8925516,N,10650.3569606,W,4,18,0.8,2110.431,M,-12.180,M,1.4,0000*52
  69058828, $GNGGA,191058.40,4028.8925565,N,10650.3569574,W,4,18,0.8,2110.441,M,-12.180,M,2.4,0000*5B
  69059827, $GNGGA,191059.40,4028.8925535,N,10650.3569628,W,4,19,0.8,2110.419,M,-12.180,M,1.4,0000*5A
  69060828, $GNGGA,191100.40,4028.8925783,N,10650.3569514,W,4,19,0.8,2110.416,M,-12.180,M,2.4,0000*58
  69061828, $GNGGA,191101.40,4028.8926380,N,10650.3569013,W,4,18,0.8,2110.356,M,-12.180,M,1.4,0000*5E
  69062827, $GNGGA,191102.40,4028.8926285,N,10650.3568562,W,4,18,0.8,2110.338,M,-12.180,M,2.4,0000*50
  69063827, $GNGGA,191103.40,4028.8925842,N,10650.3567582,W,4,18,0.8,2110.378,M,-12.180,M,1.4,0000*55
  69064828, $GNGGA,191104.40,4028.8925300,N,10650.3566013,W,4,18,0.8,2110.369,M,-12.180,M,2.4,0000*50
  69065828, $GNGGA,191105.40,4028.8924692,N,10650.3564536,W,4,19,0.7,2110.335,M,-12.180,M,1.4,0000*5A
  69066827, $GNGGA,191106.40,4028.8923691,N,10650.3562711,W,4,19,0.8,2110.253,M,-12.180,M,2.4,0000*51
  69067828, $GNGGA,191107.40,4028.8922808,N,10650.3559081,W,4,20,0.7,2110.007,M,-12.180,M,1.4,0000*5C
  69068829, $GNGGA,191108.40,4028.8922007,N,10650.3557636,W,4,18,0.9,2109.960,M,-12.180,M,2.4,0000*56
  69069825, $GNGGA,191109.40,4028.8921046,N,10650.3555447,W,4,19,0.8,2109.897,M,-12.180,M,1.4,0000*5D
  69070826, $GNGGA,191110.40,4028.8920983,N,10650.3554745,W,4,19,0.7,2109.902,M,-12.180,M,2.4,0000*55
  69071827, $GNGGA,191111.40,4028.8919728,N,10650.3552205,W,4,19,0.7,2109.893,M,-12.180,M,1.4,0000*5C
  69072825, $GNGGA,191112.40,4028.8917855,N,10650.3549449,W,4,19,0.7,2109.700,M,-12.180,M,2.4,0000*56
  69073827, $GNGGA,191113.40,4028.8915629,N,10650.3547290,W,4,18,0.8,2109.561,M,-12.180,M,1.4,0000*54
  69074827, $GNGGA,191114.40,4028.8914081,N,10650.3545562,W,4,18,0.9,2109.397,M,-12.180,M,2.4,0000*53
  69075825, $GNGGA,191115.40,4028.8913829,N,10650.3543930,W,4,18,0.9,2109.369,M,-12.180,M,1.4,0000*50
  69076828, $GNGGA,191116.40,4028.8913101,N,10650.3541041,W,4,18,0.9,2109.320,M,-12.180,M,2.4,0000*53
  69077828, $GNGGA,191117.40,4028.8911552,N,10650.3540093,W,4,16,0.7,2109.299,M,-12.180,M,1.4,0000*5C
  69078827, $GNGGA,191118.40,4028.8910507,N,10650.3538406,W,4,18,0.7,2109.196,M,-12.180,M,2.4,0000*54
  69079827, $GNGGA,191119.40,4028.8909797,N,10650.3536909,W,4,20,0.7,2109.099,M,-12.180,M,1.4,0000*5C
  69080824, $GNGGA,191120.40,4028.8909143,N,10650.3534205,W,4,19,0.7,2109.007,M,-12.180,M,2.4,0000*52
  69081825, $GNGGA,191121.40,4028.8909433,N,10650.3532590,W,4,19,0.8,2108.988,M,-12.180,M,1.4,0000*5F
  69082824, $GNGGA,191122.40,4028.8909035,N,10650.3530587,W,4,20,0.7,2108.972,M,-12.180,M,2.4,0000*59
  69083824, $GNGGA,191123.40,4028.8908249,N,10650.3529369,W,4,20,0.7,2108.953,M,-12.180,M,1.4,0000*5E
  69084825, $GNGGA,191124.40,4028.8907836,N,10650.3525894,W,4,19,0.7,2108.881,M,-12.180,M,2.4,0000*56
  69085824, $GNGGA,191125.40,4028.8907521,N,10650.3522872,W,4,21,0.7,2108.841,M,-12.180,M,1.4,0000*57
  69086825, $GNGGA,191126.40,4028.8905111,N,10650.3519008,W,4,22,0.6,2108.719,M,-12.180,M,2.4,0000*5F
  69087828, $GNGGA,191127.40,4028.8903614,N,10650.3517449,W,4,22,0.6,2108.793,M,-12.180,M,1.4,0000*54
  69088827, $GNGGA,191128.40,4028.8902593,N,10650.3515752,W,4,21,0.7,2108.779,M,-12.180,M,2.4,0000*58
  69089827, $GNGGA,191129.40,4028.8901495,N,10650.3515499,W,4,20,0.7,2108.907,M,-12.180,M,1.4,0000*5C
  69090828, $GNGGA,191130.40,4028.8900982,N,10650.3513931,W,4,18,0.7,2108.896,M,-12.180,M,2.4,0000*56
  69091826, $GNGGA,191131.40,4028.8901085,N,10650.3512859,W,4,19,0.7,2108.838,M,-12.180,M,1.4,0000*50
  69092826, $GNGGA,191132.40,4028.8898715,N,10650.3511679,W,4,19,0.7,2108.912,M,-12.180,M,2.4,0000*59
  69093826, $GNGGA,191133.40,4028.8897887,N,10650.3510051,W,4,21,0.6,2108.769,M,-12.180,M,1.4,0000*55
  69094826, $GNGGA,191134.40,4028.8898122,N,10650.3507708,W,4,21,0.6,2108.812,M,-12.180,M,2.4,0000*56
  69095825, $GNGGA,191135.40,4028.8895852,N,10650.3504270,W,4,20,0.7,2108.866,M,-12.180,M,1.4,0000*5D
  69096828, $GNGGA,191136.40,4028.8893907,N,10650.3500082,W,4,21,0.7,2108.813,M,-12.180,M,2.4,0000*52
  69097828, $GNGGA,191137.40,4028.8891462,N,10650.3496588,W,4,21,0.7,2108.897,M,-12.180,M,1.4,0000*51
  69098825, $GNGGA,191138.40,4028.8890959,N,10650.3493792,W,4,19,0.7,2108.892,M,-12.180,M,2.4,0000*5B
  69099826, $GNGGA,191139.40,4028.8888277,N,10650.3491464,W,4,20,0.7,2108.909,M,-12.180,M,1.4,0000*56
  69100828, $GNGGA,191140.40,4028.8887008,N,10650.3488885,W,4,21,0.7,2108.905,M,-12.180,M,2.4,0000*58
  69101826, $GNGGA,191141.40,4028.8884703,N,10650.3486708,W,4,19,0.7,2108.908,M,-12.180,M,1.4,0000*57
  69102827, $GNGGA,191142.40,4028.8882775,N,10650.3484295,W,4,20,0.7,2108.951,M,-12.180,M,2.4,0000*55
  69103828, $GNGGA,191143.40,4028.8881195,N,10650.3481336,W,4,21,0.7,2109.031,M,-12.180,M,1.4,0000*5E
  69104828, $GNGGA,191144.40,4028.8880518,N,10650.3475520,W,4,19,0.7,2109.039,M,-12.180,M,2.4,0000*53
  69105826, $GNGGA,191145.40,4028.8878578,N,10650.3469988,W,4,20,0.7,2109.043,M,-12.180,M,1.4,0000*54
  69106825, $GNGGA,191146.40,4028.8876550,N,10650.3466254,W,4,21,0.7,2109.131,M,-12.180,M,2.4,0000*50
  69107824, $GNGGA,191147.40,4028.8875097,N,10650.3463473,W,4,20,0.7,2109.202,M,-12.180,M,1.4,0000*5B
  69108828, $GNGGA,191148.40,4028.8873727,N,10650.3462086,W,4,19,0.7,2109.260,M,-12.180,M,2.4,0000*5C
  69109827, $GNGGA,191149.40,4028.8871870,N,10650.3460485,W,4,20,0.7,2109.376,M,-12.180,M,1.4,0000*58
  69110828, $GNGGA,191150.40,4028.8870136,N,10650.3458197,W,4,22,0.6,2109.436,M,-12.180,M,2.4,0000*54
  69111826, $GNGGA,191151.40,4028.8869421,N,10650.3455793,W,4,22,0.6,2109.447,M,-12.180,M,1.4,0000*54
  69112827, $GNGGA,191152.40,4028.8867882,N,10650.3454289,W,4,22,0.6,2109.549,M,-12.180,M,2.4,0000*5F
  69113828, $GNGGA,191153.40,4028.8866511,N,10650.3451509,W,4,22,0.6,2109.521,M,-12.180,M,1.4,0000*5F
  69114827, $GNGGA,191154.40,4028.8865075,N,10650.3448965,W,4,20,0.7,2109.515,M,-12.180,M,2.4,0000*55
  69115827, $GNGGA,191155.40,4028.8863357,N,10650.3445394,W,4,20,0.7,2109.514,M,-12.180,M,1.4,0000*5A
  69116827, $GNGGA,191156.40,4028.8861345,N,10650.3441266,W,4,19,0.7,2109.460,M,-12.180,M,2.4,0000*5B
  69117825, $GNGGA,191157.40,4028.8859711,N,10650.3438183,W,4,19,0.8,2109.427,M,-12.180,M,1.4,0000*5D
  69118827, $GNGGA,191158.40,4028.8859028,N,10650.3436446,W,4,20,0.7,2109.355,M,-12.180,M,2.4,0000*59
  69119827, $GNGGA,191159.40,4028.8858160,N,10650.3435484,W,4,17,0.8,2109.459,M,-12.180,M,1.4,0000*5A
  69120827, $GNGGA,191200.40,4028.8856843,N,10650.3434344,W,4,21,0.7,2109.495,M,-12.180,M,2.4,0000*50
  69121829, $GNGGA,191201.40,4028.8855601,N,10650.3432299,W,4,21,0.7,2109.465,M,-12.180,M,1.4,0000*51
  69122830, $GNGGA,191202.40,4028.8854027,N,10650.3429470,W,4,20,0.7,2109.416,M,-12.180,M,2.4,0000*5C
  69123828, $GNGGA,191203.40,4028.8853210,N,10650.3427154,W,4,20,0.7,2109.363,M,-12.180,M,1.4,0000*57
  69124829, $GNGGA,191204.40,4028.8850471,N,10650.3423269,W,4,20,0.7,2109.303,M,-12.180,M,2.4,0000*5E
  69125827, $GNGGA,191205.40,4028.8847910,N,10650.3419148,W,4,21,0.7,2109.211,M,-12.180,M,3.4,0000*58
  69126827, $GNGGA,191206.40,4028.8844583,N,10650.3415980,W,4,21,0.7,2109.171,M,-12.180,M,4.4,0000*5C
  69127829, $GNGGA,191207.40,4028.8842482,N,10650.3412614,W,4,21,0.7,2109.192,M,-12.180,M,1.4,0000*56
  69128829, $GNGGA,191208.40,4028.8839170,N,10650.3409212,W,4,21,0.7,2109.203,M,-12.180,M,2.4,0000*5D
  69129828, $GNGGA,191209.40,4028.8835950,N,10650.3405363,W,4,20,0.7,2109.248,M,-12.180,M,1.4,0000*5C
  69130827, $GNGGA,191210.40,4028.8832730,N,10650.3400373,W,4,20,0.7,2109.223,M,-12.180,M,2.4,0000*51
  69131827, $GNGGA,191211.40,4028.8828871,N,10650.3393978,W,4,21,0.7,2109.291,M,-12.180,M,1.4,0000*56
  69132829, $GNGGA,191212.40,4028.8825882,N,10650.3386519,W,4,20,0.7,2109.380,M,-12.180,M,2.4,0000*58
  69133827, $GNGGA,191213.40,4028.8823521,N,10650.3379185,W,4,19,0.7,2109.430,M,-12.180,M,1.4,0000*5F
  69134827, $GNGGA,191214.40,4028.8821888,N,10650.3374554,W,4,18,0.8,2109.466,M,-12.180,M,2.4,0000*5F
  69135829, $GNGGA,191215.40,4028.8820631,N,10650.3371297,W,4,22,0.6,2109.446,M,-12.180,M,1.4,0000*58
  69136831, $GNGGA,191216.40,4028.8819496,N,10650.3370380,W,4,22,0.6,2109.506,M,-12.180,M,2.4,0000*5E
  69137827, $GNGGA,191217.40,4028.8819473,N,10650.3369889,W,4,21,0.7,2109.641,M,-12.180,M,1.4,0000*5F
  69138827, $GNGGA,191218.40,4028.8820585,N,10650.3368024,W,4,21,0.7,2109.556,M,-12.180,M,2.4,0000*5A
  69139828, $GNGGA,191219.40,4028.8821479,N,10650.3367008,W,4,21,0.7,2109.433,M,-12.180,M,1.4,0000*58
  69140828, $GNGGA,191220.40,4028.8821903,N,10650.3368112,W,4,21,0.7,2109.348,M,-12.180,M,2.4,0000*5F
  69141829, $GNGGA,191221.40,4028.8822194,N,10650.3368038,W,4,21,0.7,2109.234,M,-12.180,M,1.4,0000*5B
  69142829, $GNGGA,191222.40,4028.8822932,N,10650.3367524,W,4,21,0.7,2109.185,M,-12.180,M,2.4,0000*51
  69143827, $GNGGA,191223.40,4028.8824529,N,10650.3366950,W,4,19,0.7,2109.028,M,-12.180,M,1.4,0000*50
  69144828, $GNGGA,191224.40,4028.8824195,N,10650.3368019,W,4,19,0.7,2109.066,M,-12.180,M,2.4,0000*57
  69145829, $GNGGA,191225.40,4028.8824673,N,10650.3369944,W,4,22,0.6,2109.070,M,-12.180,M,3.4,0000*56
  69146829, $GNGGA,191226.40,4028.8826503,N,10650.3372624,W,4,20,0.7,2108.958,M,-12.180,M,4.4,0000*56
  69147831, $GNGGA,191227.40,4028.8827329,N,10650.3374243,W,4,20,0.7,2109.000,M,-12.180,M,1.4,0000*5B
  69148829, $GNGGA,191228.40,4028.8828952,N,10650.3376529,W,4,22,0.6,2109.000,M,-12.180,M,2.4,0000*54
  69149827, $GNGGA,191229.40,4028.8831208,N,10650.3381824,W,4,21,0.7,2108.950,M,-12.180,M,3.4,0000*5F
  69150827, $GNGGA,191230.40,4028.8831787,N,10650.3387304,W,4,20,0.7,2108.970,M,-12.180,M,4.4,0000*5E
  69151828, $GNGGA,191231.40,4028.8834551,N,10650.3390258,W,4,21,0.7,2108.955,M,-12.180,M,1.4,0000*5E
  69152825, $GNGGA,191232.40,4028.8837748,N,10650.3393388,W,1,21,0.6,2109.220,M,-12.180,M,2.4,*54
  69153828, $GNGGA,191233.40,4028.8840268,N,10650.3397196,W,1,21,0.7,2109.715,M,-12.180,M,1.4,*5A
  69154828, $GNGGA,191234.40,4028.8842598,N,10650.3403163,W,4,21,0.7,2108.859,M,-12.180,M,2.4,0000*57
  69155829, $GNGGA,191235.40,4028.8844279,N,10650.3407711,W,4,20,0.7,2108.903,M,-12.180,M,1.4,0000*53
  69156828, $GNGGA,191236.40,4028.8846872,N,10650.3411822,W,4,20,0.7,2108.934,M,-12.180,M,2.4,0000*5C
  69157829, $GNGGA,191237.40,4028.8849654,N,10650.3415576,W,4,21,0.7,2108.930,M,-12.180,M,1.4,0000*56
  69158827, $GNGGA,191238.40,4028.8851429,N,10650.3418999,W,4,21,0.7,2108.993,M,-12.180,M,2.4,0000*52
  69159825, $GNGGA,191239.40,4028.8853152,N,10650.3422358,W,4,19,0.7,2109.047,M,-12.180,M,1.4,0000*5F
  69160826, $GNGGA,191240.40,4028.8854485,N,10650.3425024,W,4,20,0.7,2109.094,M,-12.180,M,2.4,0000*51
  69161827, $GNGGA,191241.40,4028.8855541,N,10650.3426716,W,4,20,0.7,2109.116,M,-12.180,M,1.4,0000*55
  69162827, $GNGGA,191242.40,4028.8855634,N,10650.3426626,W,4,21,0.7,2109.121,M,-12.180,M,2.4,0000*53
  69163827, $GNGGA,191243.40,4028.8855944,N,10650.3426849,W,4,20,0.7,2109.122,M,-12.180,M,1.4,0000*5C
  69164828, $GNGGA,191244.40,4028.8856743,N,10650.3428267,W,4,20,0.7,2109.140,M,-12.180,M,2.4,0000*5E
  69165827, $GNGGA,191245.40,4028.8858403,N,10650.3431072,W,4,21,0.7,2109.169,M,-12.180,M,1.4,0000*51
  69166827, $GNGGA,191246.40,4028.8861160,N,10650.3435054,W,4,21,0.7,2109.195,M,-12.180,M,2.4,0000*58
  69167827, $GNGGA,191247.40,4028.8863728,N,10650.3439010,W,4,21,0.7,2109.176,M,-12.180,M,1.4,0000*53
  69168828, $GNGGA,191248.40,4028.8866780,N,10650.3442898,W,4,20,0.7,2109.140,M,-12.180,M,2.4,0000*58
  69169827, $GNGGA,191249.40,4028.8869767,N,10650.3447171,W,4,21,0.7,2109.060,M,-12.180,M,1.4,0000*55
  69170828, $GNGGA,191250.40,4028.8872493,N,10650.3451130,W,4,21,0.7,2108.978,M,-12.180,M,2.4,0000*5F
  69171828, $GNGGA,191251.40,4028.8875239,N,10650.3455941,W,4,21,0.7,2108.885,M,-12.180,M,1.4,0000*55
  69172828, $GNGGA,191252.40,4028.8878391,N,10650.3460320,W,4,22,0.6,2108.803,M,-12.180,M,2.4,0000*5C
  69173825, $GNGGA,191253.40,4028.8880530,N,10650.3465149,W,4,20,0.7,2108.694,M,-12.180,M,1.4,0000*5F
  69174826, $GNGGA,191254.40,4028.8882563,N,10650.3469875,W,4,21,0.7,2108.710,M,-12.180,M,2.4,0000*59
  69175825, $GNGGA,191255.40,4028.8885000,N,10650.3475071,W,4,22,0.6,2108.591,M,-12.180,M,1.4,0000*54
  69176825, $GNGGA,191256.40,4028.8886983,N,10650.3479270,W,4,21,0.7,2108.555,M,-12.180,M,2.4,0000*50
  69177823, $GNGGA,191257.40,4028.8888688,N,10650.3482930,W,4,22,0.6,2108.547,M,-12.180,M,3.4,0000*50
  69178827, $GNGGA,191258.40,4028.8890350,N,10650.3487049,W,4,20,0.7,2108.583,M,-12.180,M,4.4,0000*58
  69179827, $GNGGA,191259.40,4028.8892222,N,10650.3490634,W,4,20,0.7,2108.554,M,-12.180,M,1.4,0000*5A
  69180827, $GNGGA,191300.40,4028.8893200,N,10650.3493078,W,4,20,0.7,2108.596,M,-12.180,M,2.4,0000*56
  69181827, $GNGGA,191301.40,4028.8895051,N,10650.3498405,W,4,21,0.7,2108.633,M,-12.180,M,1.4,0000*5C
  69182832, $GNGGA,191302.40,4028.8896837,N,10650.3503157,W,4,21,0.7,2108.685,M,-12.180,M,2.4,0000*5B
  69183827, $GNGGA,191303.40,4028.8897732,N,10650.3508074,W,4,21,0.7,2108.726,M,-12.180,M,1.4,0000*51
  69184828, $GNGGA,191304.40,4028.8898162,N,10650.3510798,W,4,19,0.7,2108.876,M,-12.180,M,2.4,0000*54
  69185827, $GNGGA,191305.40,4028.8899359,N,10650.3513973,W,4,19,0.7,2108.999,M,-12.180,M,1.4,0000*55
  69186827, $GNGGA,191306.40,4028.8900910,N,10650.3520052,W,4,20,0.7,2109.084,M,-12.180,M,2.4,0000*57
  69187826, $GNGGA,191307.40,4028.8903621,N,10650.3525167,W,4,21,0.7,2109.157,M,-12.180,M,1.4,0000*57
  69188827, $GNGGA,191308.40,4028.8905237,N,10650.3530033,W,4,22,0.6,2109.156,M,-12.180,M,2.4,0000*59
  69189827, $GNGGA,191309.40,4028.8907766,N,10650.3532947,W,4,20,0.7,2109.103,M,-12.180,M,1.4,0000*53
  69190829, $GNGGA,191310.40,4028.8908542,N,10650.3536663,W,4,21,0.6,2109.159,M,-12.180,M,2.4,0000*51
  69191827, $GNGGA,191311.40,4028.8909085,N,10650.3539679,W,4,18,0.7,2109.433,M,-12.180,M,1.4,0000*5A
  69192827, $GNGGA,191312.40,4028.8909913,N,10650.3543113,W,4,19,0.8,2109.719,M,-12.180,M,2.4,0000*5F
  69193827, $GNGGA,191313.40,4028.8910759,N,10650.3548328,W,4,17,1.0,2109.880,M,-12.180,M,1.4,0000*5C
  69194828, $GNGGA,191314.40,4028.8915503,N,10650.3552648,W,4,17,1.0,2110.024,M,-12.180,M,2.4,0000*56
  69195827, $GNGGA,191315.40,4028.8917381,N,10650.3554683,W,4,17,1.0,2110.004,M,-12.180,M,1.4,0000*59
  69196828, $GNGGA,191316.40,4028.8917476,N,10650.3554424,W,4,17,1.0,2109.988,M,-12.180,M,2.4,0000*5C
  69197827, $GNGGA,191317.40,4028.8917428,N,10650.3554258,W,4,17,1.0,2109.982,M,-12.180,M,1.4,0000*52
  69198826, $GNGGA,191318.40,4028.8917537,N,10650.3554318,W,4,17,1.0,2109.958,M,-12.180,M,2.4,0000*53
  69199827, $GNGGA,191319.40,4028.8917530,N,10650.3554370,W,4,17,1.0,2109.968,M,-12.180,M,1.4,0000*5B
  69200827, $GNGGA,191320.40,4028.8917549,N,10650.3554310,W,4,17,1.0,2109.967,M,-12.180,M,2.4,0000*55
  69201827, $GNGGA,191321.40,4028.8917523,N,10650.3554299,W,4,17,1.0,2109.971,M,-12.180,M,1.4,0000*5C
  69202827, $GNGGA,191322.40,4028.8917504,N,10650.3554318,W,4,17,1.0,2109.979,M,-12.180,M,2.4,0000*59
  69203825, $GNGGA,191323.40,4028.8918053,N,10650.3554582,W,4,17,1.0,2109.957,M,-12.180,M,1.4,0000*5A
  69204827, $GNGGA,191324.40,4028.8918593,N,10650.3555295,W,4,18,0.9,2109.974,M,-12.180,M,2.4,0000*51
  69205825, $GNGGA,191325.40,4028.8920411,N,10650.3556025,W,4,18,0.9,2109.987,M,-12.180,M,1.4,0000*55
  69206824, $GNGGA,191326.40,4028.8920777,N,10650.3556275,W,4,18,0.9,2109.964,M,-12.180,M,2.4,0000*5C
  69207827, $GNGGA,191327.40,4028.8920837,N,10650.3556299,W,4,19,0.7,2109.966,M,-12.180,M,1.4,0000*5A
  69208826, $GNGGA,191328.40,4028.8920817,N,10650.3556335,W,4,19,0.7,2109.975,M,-12.180,M,2.4,0000*51
  69209827, $GNGGA,191329.40,4028.8920809,N,10650.3556343,W,4,19,0.7,2109.952,M,-12.180,M,1.4,0000*58
  69210827, $GNGGA,191330.40,4028.8920902,N,10650.3556341,W,4,18,0.7,2109.941,M,-12.180,M,2.4,0000*58
  69211827, $GNGGA,191331.40,4028.8921095,N,10650.3556349,W,4,18,0.7,2109.914,M,-12.180,M,1.4,0000*54
  69212827, $GNGGA,191332.40,4028.8921064,N,10650.3556449,W,4,19,0.7,2109.909,M,-12.180,M,2.4,0000*50
  69213826, $GNGGA,191333.40,4028.8921082,N,10650.3556415,W,4,18,0.7,2109.899,M,-12.180,M,1.4,0000*5A
  69214827, $GNGGA,191334.40,4028.8920741,N,10650.3557026,W,4,18,0.7,2109.957,M,-12.180,M,2.4,0000*51
  69215824, $GNGGA,191335.40,4028.8921360,N,10650.3558916,W,4,18,0.9,2110.076,M,-12.180,M,1.4,0000*5C
  69216826, $GNGGA,191336.40,4028.8923032,N,10650.3560655,W,4,20,0.7,2110.030,M,-12.180,M,2.4,0000*5E
  69217826, $GNGGA,191337.40,4028.8924629,N,10650.3561800,W,4,21,0.7,2109.999,M,-12.180,M,3.4,0000*59
  69218825, $GNGGA,191338.40,4028.8924998,N,10650.3561935,W,4,21,0.6,2109.984,M,-12.180,M,4.4,0000*5E
  69219825, $GNGGA,191339.40,4028.8925111,N,10650.3562391,W,4,20,0.7,2110.034,M,-12.180,M,1.4,0000*5F
  69220827, $GNGGA,191340.40,4028.8924774,N,10650.3562469,W,4,20,0.7,2110.105,M,-12.180,M,2.4,0000*55
  69221825, $GNGGA,191341.40,4028.8924735,N,10650.3562707,W,4,19,0.7,2110.127,M,-12.180,M,1.4,0000*53
  69222828, $GNGGA,191342.40,4028.8924935,N,10650.3564248,W,4,19,0.7,2110.240,M,-12.180,M,2.4,0000*57
  69223828, $GNGGA,191343.40,4028.8925980,N,10650.3566406,W,4,19,0.7,2110.294,M,-12.180,M,1.4,0000*5D
  69224826, $GNGGA,191344.40,4028.8928135,N,10650.3567657,W,4,20,0.7,2110.183,M,-12.180,M,2.4,0000*5A
  69225826, $GNGGA,191345.40,4028.8929058,N,10650.3570325,W,4,20,0.7,2110.119,M,-12.180,M,1.4,0000*56
  69226827, $GNGGA,191346.40,4028.8930154,N,10650.3568783,W,4,19,0.7,2109.936,M,-12.180,M,2.4,0000*55
  69227828, $GNGGA,191347.40,4028.8930348,N,10650.3566604,W,4,19,0.7,2109.886,M,-12.180,M,1.4,0000*52
  69228827, $GNGGA,191348.40,4028.8930151,N,10650.3565891,W,4,18,0.8,2109.977,M,-12.180,M,2.4,0000*54
  69229827, $GNGGA,191349.40,4028.8930066,N,10650.3566871,W,4,19,0.8,2110.038,M,-12.180,M,1.4,0000*55
  69230827, $GNGGA,191350.40,4028.8929789,N,10650.3569184,W,4,19,0.7,2109.980,M,-12.180,M,2.4,0000*51
  69231828, $GNGGA,191351.40,4028.8930233,N,10650.3570294,W,4,20,0.7,2109.925,M,-12.180,M,1.4,0000*50
  69232827, $GNGGA,191352.40,4028.8930729,N,10650.3570848,W,4,21,0.6,2109.866,M,-12.180,M,2.4,0000*53
  69233827, $GNGGA,191353.40,4028.8931118,N,10650.3570572,W,4,20,0.6,2109.822,M,-12.180,M,1.4,0000*51
  69234832, $GNGGA,191354.40,4028.8930781,N,10650.3568410,W,4,21,0.6,2109.939,M,-12.180,M,2.4,0000*54
  69235828, $GNGGA,191355.40,4028.8930899,N,10650.3568409,W,4,20,0.6,2109.874,M,-12.180,M,1.4,0000*51
  69236826, $GNGGA,191356.40,4028.8931337,N,10650.3568530,W,4,20,0.6,2110.004,M,-12.180,M,2.4,0000*53
  69237826, $GNGGA,191357.40,4028.8931408,N,10650.3568530,W,4,21,0.6,2110.069,M,-12.180,M,1.4,0000*50
  69238827, $GNGGA,191358.40,4028.8931750,N,10650.3569651,W,4,20,0.7,2110.029,M,-12.180,M,2.4,0000*53
  69239828, $GNGGA,191359.40,4028.8932286,N,10650.3569049,W,4,20,0.7,2110.036,M,-12.180,M,1.4,0000*5D
  69240829, $GNGGA,191400.40,4028.8931452,N,10650.3569432,W,4,19,0.7,2110.035,M,-12.180,M,2.4,0000*58
  69241826, $GNGGA,191401.40,4028.8930989,N,10650.3569807,W,4,18,0.9,2109.657,M,-12.180,M,1.4,0000*5F
  69242825, $GNGGA,191402.40,4028.8931013,N,10650.3569399,W,4,17,1.0,2109.608,M,-12.180,M,2.4,0000*55
  69243825, $GNGGA,191403.40,4028.8933157,N,10650.3570207,W,4,20,0.7,2109.778,M,-12.180,M,1.4,0000*5E
  69244827, $GNGGA,191404.40,4028.8932828,N,10650.3569621,W,4,20,0.7,2109.755,M,-12.180,M,2.4,0000*5D
  69245825, $GNGGA,191405.40,4028.8932846,N,10650.3569558,W,4,20,0.7,2109.675,M,-12.180,M,1.4,0000*59
  69246829, $GNGGA,191406.40,4028.8932848,N,10650.3569216,W,4,20,0.7,2109.697,M,-12.180,M,2.4,0000*56
  69247825, $GNGGA,191407.40,4028.8933548,N,10650.3568582,W,4,20,0.7,2109.591,M,-12.180,M,1.4,0000*56
  69248826, $GNGGA,191408.40,4028.8931961,N,10650.3567254,W,4,19,0.7,2109.371,M,-12.180,M,2.4,0000*5E
  69249826, $GNGGA,191409.40,4028.8930989,N,10650.3565922,W,4,20,0.7,2109.370,M,-12.180,M,1.4,0000*58
  69250826, $GNGGA,191410.40,4028.8930619,N,10650.3563595,W,4,20,0.7,2109.361,M,-12.180,M,2.4,0000*53
