
  66157858, $GNGGA,182237.40,4028.8763571,N,10650.3122620,W,4,22,0.6,2112.578,M,-12.180,M,1.4,0000*5F
  66603858, $GNGGA,183003.40,4028.8769663,N,10650.3424973,W,4,23,0.6,2114.740,M,-12.181,M,1.4,0000*54
  66604859, $GNGGA,183004.40,4028.8769666,N,10650.3424982,W,4,23,0.6,2114.740,M,-12.181,M,2.4,0000*5B
  66605856, $GNGGA,183005.40,4028.8769670,N,10650.3424972,W,4,23,0.6,2114.736,M,-12.181,M,1.4,0000*50
  66606861, $GNGGA,183006.40,4028.8769672,N,10650.3424997,W,4,23,0.6,2114.740,M,-12.181,M,2.4,0000*58
  66607859, $GNGGA,183007.40,4028.8769676,N,10650.3424970,W,4,23,0.6,2114.738,M,-12.181,M,1.4,0000*58
  66608858, $GNGGA,183008.40,4028.8769702,N,10650.3424991,W,4,23,0.6,2114.743,M,-12.181,M,2.4,0000*55
  66609857, $GNGGA,183009.40,4028.8769833,N,10650.3425262,W,4,23,0.6,2114.744,M,-12.181,M,1.4,0000*5B
  66610857, $GNGGA,183010.40,4028.8769917,N,10650.3425471,W,4,23,0.6,2114.750,M,-12.181,M,2.4,0000*56
  66611857, $GNGGA,183011.40,4028.8769951,N,10650.3425574,W,4,23,0.6,2114.750,M,-12.181,M,1.4,0000*52
  66612856, $GNGGA,183012.40,4028.8770776,N,10650.3426434,W,4,23,0.6,2114.759,M,-12.181,M,2.4,0000*5E
  66613857, $GNGGA,183013.40,4028.8772424,N,10650.3429107,W,4,23,0.6,2114.743,M,-12.181,M,1.4,0000*5B
  66614855, $GNGGA,183014.40,4028.8774551,N,10650.3432233,W,4,23,0.6,2114.727,M,-12.181,M,2.4,0000*56
  66615858, $GNGGA,183015.40,4028.8776799,N,10650.3436193,W,4,23,0.6,2114.763,M,-12.181,M,1.4,0000*5D
  66616859, $GNGGA,183016.40,4028.8778421,N,10650.3440027,W,4,23,0.6,2114.847,M,-12.181,M,2.4,0000*55
  66617858, $GNGGA,183017.40,4028.8780146,N,10650.3443631,W,4,23,0.6,2114.888,M,-12.181,M,1.4,0000*55
  66618857, $GNGGA,183018.40,4028.8781823,N,10650.3447282,W,4,23,0.6,2114.937,M,-12.181,M,2.4,0000*5F
  66619857, $GNGGA,183019.40,4028.8784077,N,10650.3451118,W,4,23,0.6,2114.977,M,-12.181,M,1.4,0000*52
  66620859, $GNGGA,183020.40,4028.8786195,N,10650.3454656,W,4,23,0.6,2115.008,M,-12.181,M,2.4,0000*5C
  66621858, $GNGGA,183021.40,4028.8788798,N,10650.3458610,W,4,23,0.6,2115.025,M,-12.181,M,1.4,0000*5A
  66622857, $GNGGA,183022.40,4028.8790447,N,10650.3462663,W,4,23,0.6,2115.121,M,-12.181,M,2.4,0000*5A
  66623856, $GNGGA,183023.40,4028.8791627,N,10650.3466950,W,4,22,0.7,2115.240,M,-12.181,M,1.4,0000*52
  66624858, $GNGGA,183024.40,4028.8793859,N,10650.3469772,W,4,21,0.7,2115.263,M,-12.181,M,2.4,0000*50
  66625870, $GNGGA,183025.40,4028.8795582,N,10650.3473066,W,4,23,0.6,2115.311,M,-12.181,M,1.4,0000*51
  66626856, $GNGGA,183026.40,4028.8797705,N,10650.3476659,W,4,23,0.6,2115.373,M,-12.181,M,2.4,0000*55
  66627856, $GNGGA,183027.40,4028.8799211,N,10650.3479129,W,4,23,0.6,2115.474,M,-12.181,M,1.4,0000*56
  66628858, $GNGGA,183028.40,4028.8801382,N,10650.3482043,W,4,22,0.7,2115.487,M,-12.181,M,2.4,0000*5A
  66629856, $GNGGA,183029.40,4028.8802594,N,10650.3484575,W,4,22,0.7,2115.601,M,-12.181,M,1.4,0000*50
  66630856, $GNGGA,183030.40,4028.8804423,N,10650.3487189,W,4,22,0.7,2115.723,M,-12.181,M,2.4,0000*55
  66631855, $GNGGA,183031.40,4028.8806927,N,10650.3490598,W,4,22,0.7,2115.757,M,-12.181,M,1.4,0000*5D
  66632855, $GNGGA,183032.40,4028.8808715,N,10650.3493341,W,4,22,0.7,2115.838,M,-12.181,M,2.4,0000*5B
  66633856, $GNGGA,183033.40,4028.8810655,N,10650.3495979,W,4,22,0.7,2115.897,M,-12.181,M,1.4,0000*57
  66634856, $GNGGA,183034.40,4028.8811492,N,10650.3496647,W,4,23,0.6,2115.912,M,-12.181,M,2.4,0000*56
  66635858, $GNGGA,183035.40,4028.8811415,N,10650.3496400,W,4,23,0.6,2115.876,M,-12.181,M,1.4,0000*59
  66636856, $GNGGA,183036.40,4028.8811405,N,10650.3496388,W,4,23,0.6,2115.880,M,-12.181,M,2.4,0000*56
  66637857, $GNGGA,183037.40,4028.8811340,N,10650.3496442,W,4,23,0.6,2115.892,M,-12.181,M,1.4,0000*50
  66638857, $GNGGA,183038.40,4028.8811453,N,10650.3496532,W,4,23,0.6,2115.890,M,-12.181,M,2.4,0000*5D
  66639856, $GNGGA,183039.40,4028.8811988,N,10650.3497170,W,4,23,0.6,2115.976,M,-12.181,M,1.4,0000*5E
  66640858, $GNGGA,183040.40,4028.8813341,N,10650.3498924,W,4,23,0.6,2115.915,M,-12.181,M,2.4,0000*5D
  66641855, $GNGGA,183041.40,4028.8814625,N,10650.3501022,W,4,22,0.7,2115.893,M,-12.181,M,1.4,0000*5E
  66642857, $GNGGA,183042.40,4028.8816280,N,10650.3503199,W,4,22,0.7,2115.868,M,-12.181,M,2.4,0000*50
  66643859, $GNGGA,183043.40,4028.8816818,N,10650.3504600,W,4,22,0.7,2115.876,M,-12.181,M,1.4,0000*56
  66644858, $GNGGA,183044.40,4028.8818021,N,10650.3505979,W,4,23,0.6,2115.884,M,-12.181,M,2.4,0000*53
  66645856, $GNGGA,183045.40,4028.8817856,N,10650.3506675,W,4,23,0.6,2115.893,M,-12.181,M,1.4,0000*50
  66646858, $GNGGA,183046.40,4028.8818407,N,10650.3507942,W,4,23,0.6,2116.004,M,-12.181,M,2.4,0000*58
  66647862, $GNGGA,183047.40,4028.8819615,N,10650.3511443,W,4,22,0.7,2116.040,M,-12.181,M,1.4,0000*51
  66648859, $GNGGA,183048.40,4028.8820167,N,10650.3512603,W,4,22,0.7,2116.031,M,-12.181,M,2.4,0000*56
  66649857, $GNGGA,183049.40,4028.8820709,N,10650.3512210,W,4,22,0.7,2115.973,M,-12.181,M,1.4,0000*50
  66650857, $GNGGA,183050.40,4028.8820505,N,10650.3512357,W,4,22,0.7,2116.052,M,-12.181,M,2.4,0000*5E
  66651859, $GNGGA,183051.40,4028.8820121,N,10650.3514313,W,4,22,0.7,2116.142,M,-12.181,M,1.4,0000*58
  66652862, $GNGGA,183052.40,4028.8821802,N,10650.3514884,W,4,23,0.6,2116.028,M,-12.181,M,2.4,0000*59
  66653859, $GNGGA,183053.40,4028.8822642,N,10650.3516587,W,4,22,0.7,2116.031,M,-12.181,M,1.4,0000*56
  66654859, $GNGGA,183054.40,4028.8823818,N,10650.3518231,W,4,22,0.7,2116.000,M,-12.181,M,2.4,0000*54
  66655857, $GNGGA,183055.40,4028.8825639,N,10650.3520853,W,4,22,0.7,2115.927,M,-12.181,M,1.4,0000*57
  66656857, $GNGGA,183056.40,4028.8826258,N,10650.3521501,W,4,22,0.7,2115.906,M,-12.181,M,2.4,0000*5F
  66657859, $GNGGA,183057.40,4028.8826238,N,10650.3521543,W,4,22,0.7,2115.931,M,-12.181,M,1.4,0000*59
  66658858, $GNGGA,183058.40,4028.8826360,N,10650.3521568,W,4,22,0.7,2115.941,M,-12.181,M,2.4,0000*57
  66659856, $GNGGA,183059.40,4028.8826294,N,10650.3521625,W,4,22,0.7,2115.935,M,-12.181,M,1.4,0000*56
  66660857, $GNGGA,183100.40,4028.8826480,N,10650.3521592,W,4,22,0.7,2115.926,M,-12.181,M,2.4,0000*56
  66661856, $GNGGA,183101.40,4028.8826154,N,10650.3521588,W,4,22,0.7,2115.982,M,-12.181,M,1.4,0000*5D
  66662857, $GNGGA,183102.40,4028.8827027,N,10650.3522472,W,4,22,0.7,2116.030,M,-12.181,M,2.4,0000*5D
  66663857, $GNGGA,183103.40,4028.8828374,N,10650.3525608,W,4,21,0.7,2115.861,M,-12.181,M,1.4,0000*51
  66664866, $GNGGA,183104.40,4028.8829627,N,10650.3527264,W,4,21,0.7,2115.744,M,-12.181,M,2.4,0000*53
  66665857, $GNGGA,183105.40,4028.8830422,N,10650.3528530,W,4,21,0.7,2115.728,M,-12.181,M,1.4,0000*5D
  66666859, $GNGGA,183106.40,4028.8831171,N,10650.3530659,W,4,21,0.7,2115.711,M,-12.181,M,2.4,0000*50
  66667857, $GNGGA,183107.40,4028.8831902,N,10650.3531999,W,4,21,0.7,2115.713,M,-12.181,M,1.4,0000*5E
  66668856, $GNGGA,183108.40,4028.8832091,N,10650.3533387,W,4,21,0.7,2115.730,M,-12.181,M,2.4,0000*54
  66669857, $GNGGA,183109.40,4028.8833044,N,10650.3535060,W,4,21,0.7,2115.664,M,-12.181,M,1.4,0000*53
  66670858, $GNGGA,183110.40,4028.8833380,N,10650.3536261,W,4,21,0.7,2115.676,M,-12.181,M,2.4,0000*50
  66671858, $GNGGA,183111.40,4028.8834190,N,10650.3539780,W,4,22,0.7,2115.681,M,-12.181,M,1.4,0000*58
  66672857, $GNGGA,183112.40,4028.8834817,N,10650.3541236,W,4,22,0.7,2115.679,M,-12.181,M,2.4,0000*5E
  66673857, $GNGGA,183113.40,4028.8835547,N,10650.3542164,W,4,22,0.7,2115.645,M,-12.181,M,1.4,0000*5D
  66674857, $GNGGA,183114.40,4028.8835966,N,10650.3542949,W,4,22,0.7,2115.639,M,-12.181,M,2.4,0000*5A
  66675856, $GNGGA,183115.40,4028.8836726,N,10650.3544157,W,4,22,0.7,2115.619,M,-12.181,M,1.4,0000*52
  66676858, $GNGGA,183116.40,4028.8837322,N,10650.3545954,W,4,21,0.7,2115.621,M,-12.181,M,2.4,0000*51
  66677856, $GNGGA,183117.40,4028.8838865,N,10650.3549510,W,4,22,0.7,2115.642,M,-12.181,M,1.4,0000*52
  66678859, $GNGGA,183118.40,4028.8841621,N,10650.3553845,W,4,22,0.7,2115.550,M,-12.181,M,2.4,0000*58
  66679857, $GNGGA,183119.40,4028.8844214,N,10650.3559300,W,4,22,0.7,2115.582,M,-12.181,M,1.4,0000*52
  66680856, $GNGGA,183120.40,4028.8847072,N,10650.3564035,W,4,21,0.7,2115.581,M,-12.181,M,2.4,0000*51
  66681856, $GNGGA,183121.40,4028.8849287,N,10650.3569571,W,4,21,0.7,2115.734,M,-12.181,M,1.4,0000*51
  66682858, $GNGGA,183122.40,4028.8851920,N,10650.3575179,W,4,21,0.7,2115.858,M,-12.181,M,2.4,0000*5A
  66683857, $GNGGA,183123.40,4028.8854209,N,10650.3580474,W,4,20,0.8,2115.996,M,-12.181,M,1.4,0000*52
  66684858, $GNGGA,183124.40,4028.8856660,N,10650.3584581,W,4,21,0.7,2116.120,M,-12.181,M,2.4,0000*58
  66685858, $GNGGA,183125.40,4028.8858844,N,10650.3588608,W,4,20,0.7,2116.173,M,-12.181,M,1.4,0000*55
  66686856, $GNGGA,183126.40,4028.8860959,N,10650.3592408,W,4,21,0.7,2116.200,M,-12.181,M,2.4,0000*5C
  66687858, $GNGGA,183127.40,4028.8862134,N,10650.3594389,W,4,21,0.7,2116.253,M,-12.181,M,1.4,0000*51
  66688858, $GNGGA,183128.40,4028.8863996,N,10650.3597153,W,4,21,0.7,2116.302,M,-12.181,M,2.4,0000*5F
  66689858, $GNGGA,183129.40,4028.8865874,N,10650.3601335,W,4,21,0.7,2116.339,M,-12.181,M,1.4,0000*50
  66690860, $GNGGA,183130.40,4028.8867972,N,10650.3605506,W,4,20,0.8,2116.423,M,-12.181,M,2.4,0000*5E
  66691858, $GNGGA,183131.40,4028.8869538,N,10650.3608705,W,4,19,0.8,2116.518,M,-12.181,M,1.4,0000*5F
  66692857, $GNGGA,183132.40,4028.8871773,N,10650.3610730,W,4,19,0.8,2116.405,M,-12.181,M,2.4,0000*59
  66693856, $GNGGA,183133.40,4028.8872164,N,10650.3611195,W,4,18,0.8,2116.387,M,-12.181,M,1.4,0000*5C
  66694858, $GNGGA,183134.40,4028.8873199,N,10650.3612218,W,4,20,0.8,2116.397,M,-12.181,M,2.4,0000*54
  66695857, $GNGGA,183135.40,4028.8873041,N,10650.3612021,W,4,20,0.8,2116.396,M,-12.181,M,1.4,0000*5B
  66696857, $GNGGA,183136.40,4028.8872731,N,10650.3612210,W,4,19,0.8,2116.424,M,-12.181,M,2.4,0000*5E
  66697859, $GNGGA,183137.40,4028.8872686,N,10650.3612214,W,4,19,0.8,2116.423,M,-12.181,M,1.4,0000*52
  66698859, $GNGGA,183138.40,4028.8872329,N,10650.3612743,W,4,20,0.8,2116.544,M,-12.181,M,2.4,0000*53
  66699857, $GNGGA,183139.40,4028.8872417,N,10650.3611403,W,4,20,0.8,2116.569,M,-12.181,M,1.4,0000*50
  66700857, $GNGGA,183140.40,4028.8872758,N,10650.3610134,W,4,20,0.8,2116.499,M,-12.181,M,2.4,0000*5B
  66701857, $GNGGA,183141.40,4028.8872235,N,10650.3607865,W,4,19,0.8,2116.427,M,-12.181,M,1.4,0000*53
  66702857, $GNGGA,183142.40,4028.8871176,N,10650.3607281,W,4,19,0.8,2116.455,M,-12.181,M,2.4,0000*51
  66703856, $GNGGA,183143.40,4028.8870814,N,10650.3608427,W,4,20,0.8,2116.576,M,-12.181,M,1.4,0000*50
  66704857, $GNGGA,183144.40,4028.8870683,N,10650.3609536,W,4,20,0.8,2116.536,M,-12.181,M,2.4,0000*50
  66705857, $GNGGA,183145.40,4028.8871237,N,10650.3608993,W,4,20,0.8,2116.406,M,-12.181,M,3.4,0000*5A
  66706857, $GNGGA,183146.40,4028.8870773,N,10650.3608831,W,4,20,0.8,2116.465,M,-12.181,M,4.4,0000*56
  66707859, $GNGGA,183147.40,4028.8871491,N,10650.3608611,W,4,19,0.8,2116.336,M,-12.181,M,1.4,0000*5B
  66708859, $GNGGA,183148.40,4028.8871946,N,10650.3608568,W,4,19,0.8,2116.287,M,-12.181,M,2.4,0000*56
  66709857, $GNGGA,183149.40,4028.8871992,N,10650.3608604,W,4,19,0.8,2116.262,M,-12.181,M,1.4,0000*5F
  66710857, $GNGGA,183150.40,4028.8872116,N,10650.3608584,W,4,19,0.8,2116.240,M,-12.181,M,2.4,0000*58
  66711856, $GNGGA,183151.40,4028.8872120,N,10650.3608581,W,4,19,0.8,2116.250,M,-12.181,M,1.4,0000*5B
  66712857, $GNGGA,183152.40,4028.8872118,N,10650.3608552,W,4,19,0.8,2116.247,M,-12.181,M,2.4,0000*58
  66713855, $GNGGA,183153.40,4028.8872113,N,10650.3608523,W,4,19,0.8,2116.252,M,-12.181,M,3.4,0000*51
  66714856, $GNGGA,183154.40,4028.8872113,N,10650.3608537,W,4,19,0.8,2116.243,M,-12.181,M,4.4,0000*54
  66715859, $GNGGA,183155.40,4028.8872209,N,10650.3608292,W,4,19,0.8,2116.254,M,-12.181,M,1.4,0000*56
  66716856, $GNGGA,183156.40,4028.8872249,N,10650.3607848,W,4,20,0.8,2116.195,M,-12.181,M,2.4,0000*54
  66717855, $GNGGA,183157.40,4028.8872288,N,10650.3607826,W,4,20,0.8,2116.196,M,-12.181,M,3.4,0000*52
  66718856, $GNGGA,183158.40,4028.8872405,N,10650.3607842,W,4,20,0.8,2116.184,M,-12.181,M,4.4,0000*58
  66719856, $GNGGA,183159.40,4028.8872384,N,10650.3607825,W,4,20,0.8,2116.182,M,-12.181,M,1.4,0000*55
  66720857, $GNGGA,183200.40,4028.8871322,N,10650.3607668,W,1,20,0.7,2115.461,M,-12.181,M,2.4,*50
  66721856, $GNGGA,183201.40,4028.8873434,N,10650.3605445,W,1,20,0.8,2116.232,M,-12.181,M,1.4,*53
  66722855, $GNGGA,183202.40,4028.8872458,N,10650.3607871,W,4,20,0.8,2116.175,M,-12.181,M,2.4,0000*54
  66723857, $GNGGA,183203.40,4028.8872439,N,10650.3607880,W,4,20,0.8,2116.171,M,-12.181,M,1.4,0000*5B
  66724856, $GNGGA,183204.40,4028.8872439,N,10650.3607861,W,4,20,0.8,2116.184,M,-12.181,M,2.4,0000*5A
  66725859, $GNGGA,183205.40,4028.8872429,N,10650.3607827,W,4,19,0.8,2116.187,M,-12.181,M,1.4,0000*52
  66726854, $GNGGA,183206.40,4028.8872436,N,10650.3607808,W,4,19,0.8,2116.194,M,-12.181,M,2.4,0000*53
  66727856, $GNGGA,183207.40,4028.8872452,N,10650.3607865,W,4,20,0.8,2116.185,M,-12.181,M,1.4,0000*52
  66728856, $GNGGA,183208.40,4028.8872446,N,10650.3607866,W,4,20,0.8,2116.185,M,-12.181,M,2.4,0000*58
  66729856, $GNGGA,183209.40,4028.8872452,N,10650.3607830,W,4,20,0.8,2116.196,M,-12.181,M,1.4,0000*5E
  66730857, $GNGGA,183210.40,4028.8872450,N,10650.3607847,W,4,20,0.8,2116.192,M,-12.181,M,2.4,0000*53
  66731854, $GNGGA,183211.40,4028.8872450,N,10650.3607840,W,4,21,0.7,2116.190,M,-12.181,M,1.4,0000*5A
  66732857, $GNGGA,183212.40,4028.8872461,N,10650.3607886,W,4,20,0.8,2116.193,M,-12.181,M,2.4,0000*5F
  66733856, $GNGGA,183213.40,4028.8872458,N,10650.3607910,W,4,21,0.7,2116.190,M,-12.181,M,1.4,0000*54
  66734860, $GNGGA,183214.40,4028.8872456,N,10650.3607913,W,4,21,0.7,2116.186,M,-12.181,M,2.4,0000*5A
  66735857, $GNGGA,183215.40,4028.8872460,N,10650.3607875,W,4,19,0.8,2116.198,M,-12.181,M,1.4,0000*57
  66736858, $GNGGA,183216.40,4028.8872474,N,10650.3607883,W,4,19,0.8,2116.209,M,-12.181,M,2.4,0000*50
  66737856, $GNGGA,183217.40,4028.8872485,N,10650.3607929,W,4,20,0.7,2116.190,M,-12.181,M,1.4,0000*5B
  66738856, $GNGGA,183218.40,4028.8872468,N,10650.3607947,W,4,20,0.8,2116.182,M,-12.181,M,2.4,0000*50
  66739856, $GNGGA,183219.40,4028.8872457,N,10650.3607915,W,4,20,0.8,2116.179,M,-12.181,M,1.4,0000*5D
  66740854, $GNGGA,183220.40,4028.8872438,N,10650.3607860,W,4,20,0.8,2116.184,M,-12.181,M,2.4,0000*5C
  66741856, $GNGGA,183221.40,4028.8872208,N,10650.3607700,W,4,20,0.8,2116.212,M,-12.181,M,1.4,0000*5E
  66742856, $GNGGA,183222.40,4028.8872183,N,10650.3606941,W,4,19,0.8,2116.174,M,-12.181,M,2.4,0000*5D
  66743857, $GNGGA,183223.40,4028.8871693,N,10650.3606231,W,4,18,0.8,2116.148,M,-12.181,M,1.4,0000*58
  66744856, $GNGGA,183224.40,4028.8870710,N,10650.3604131,W,4,20,0.8,2116.132,M,-12.181,M,2.4,0000*50
  66745856, $GNGGA,183225.40,4028.8869377,N,10650.3601952,W,4,20,0.8,2116.100,M,-12.181,M,3.4,0000*54
  66746856, $GNGGA,183226.40,4028.8867532,N,10650.3598725,W,4,21,0.7,2116.063,M,-12.181,M,4.4,0000*5E
  66747855, $GNGGA,183227.40,4028.8867182,N,10650.3596621,W,4,20,0.8,2116.013,M,-12.181,M,1.4,0000*57
  66748856, $GNGGA,183228.40,4028.8866028,N,10650.3594764,W,4,20,0.8,2116.018,M,-12.181,M,2.4,0000*52
  66749856, $GNGGA,183229.40,4028.8864377,N,10650.3592248,W,4,20,0.8,2115.961,M,-12.181,M,3.4,0000*50
  66750857, $GNGGA,183230.40,4028.8862423,N,10650.3589606,W,4,21,0.7,2115.936,M,-12.181,M,4.4,0000*57
  66751856, $GNGGA,183231.40,4028.8860947,N,10650.3587265,W,4,20,0.8,2115.931,M,-12.181,M,1.4,0000*58
  66752856, $GNGGA,183232.40,4028.8856880,N,10650.3580486,W,1,21,0.7,2114.864,M,-12.181,M,2.4,*50
  66753859, $GNGGA,183233.40,4028.8858859,N,10650.3579519,W,1,21,0.7,2116.103,M,-12.181,M,1.4,*53
  66754855, $GNGGA,183234.40,4028.8859693,N,10650.3582614,W,4,21,0.7,2115.747,M,-12.181,M,2.4,0000*54
  66755856, $GNGGA,183235.40,4028.8859279,N,10650.3581195,W,4,21,0.7,2115.727,M,-12.181,M,1.4,0000*5D
  66756853, $GNGGA,183236.40,4028.8858244,N,10650.3579212,W,4,21,0.7,2115.670,M,-12.181,M,2.4,0000*5A
  66757856, $GNGGA,183237.40,4028.8857378,N,10650.3575414,W,4,21,0.7,2115.438,M,-12.181,M,3.4,0000*59
  66758854, $GNGGA,183238.40,4028.8855513,N,10650.3571927,W,4,21,0.7,2115.397,M,-12.181,M,4.4,0000*53
  66759855, $GNGGA,183239.40,4028.8853001,N,10650.3568109,W,4,21,0.7,2115.316,M,-12.181,M,1.4,0000*52
  66760857, $GNGGA,183240.40,4028.8850773,N,10650.3562961,W,4,21,0.7,2115.237,M,-12.181,M,2.4,0000*50
  66761854, $GNGGA,183241.40,4028.8847978,N,10650.3559378,W,4,21,0.7,2115.301,M,-12.181,M,3.4,0000*5D
  66762857, $GNGGA,183242.40,4028.8846205,N,10650.3555266,W,4,22,0.7,2115.313,M,-12.181,M,4.4,0000*5B
  66763857, $GNGGA,183243.40,4028.8844120,N,10650.3550977,W,4,21,0.7,2115.243,M,-12.181,M,1.4,0000*50
  66764855, $GNGGA,183244.40,4028.8842023,N,10650.3546585,W,4,21,0.7,2115.272,M,-12.181,M,2.4,0000*54
  66765856, $GNGGA,183245.40,4028.8840401,N,10650.3543776,W,4,21,0.7,2115.334,M,-12.181,M,1.4,0000*58
  66766855, $GNGGA,183246.40,4028.8838967,N,10650.3539315,W,4,22,0.7,2115.292,M,-12.181,M,2.4,0000*58
  66767854, $GNGGA,183247.40,4028.8836978,N,10650.3535775,W,4,22,0.7,2115.279,M,-12.181,M,1.4,0000*51
  66768857, $GNGGA,183248.40,4028.8836120,N,10650.3533591,W,4,21,0.7,2115.324,M,-12.181,M,2.4,0000*5C
  66769857, $GNGGA,183249.40,4028.8835582,N,10650.3533160,W,4,21,0.7,2115.384,M,-12.181,M,1.4,0000*51
  66770856, $GNGGA,183250.40,4028.8834917,N,10650.3532008,W,4,21,0.7,2115.457,M,-12.181,M,2.4,0000*5C
  66771855, $GNGGA,183251.40,4028.8833147,N,10650.3527582,W,4,21,0.7,2115.485,M,-12.181,M,1.4,0000*58
  66772859, $GNGGA,183252.40,4028.8831641,N,10650.3524079,W,4,22,0.7,2115.492,M,-12.181,M,2.4,0000*5C
  66773857, $GNGGA,183253.40,4028.8830308,N,10650.3520017,W,4,22,0.7,2115.524,M,-12.181,M,3.4,0000*55
  66774856, $GNGGA,183254.40,4028.8829455,N,10650.3517395,W,4,22,0.7,2115.452,M,-12.181,M,4.4,0000*5F
  66775857, $GNGGA,183255.40,4028.8829012,N,10650.3516241,W,4,22,0.7,2115.458,M,-12.181,M,1.4,0000*5F
  66776855, $GNGGA,183256.40,4028.8828599,N,10650.3515358,W,4,22,0.7,2115.461,M,-12.181,M,2.4,0000*58
  66777856, $GNGGA,183257.40,4028.8828443,N,10650.3515425,W,4,22,0.7,2115.484,M,-12.181,M,1.4,0000*5A
  66778858, $GNGGA,183258.40,4028.8828326,N,10650.3515390,W,4,22,0.7,2115.601,M,-12.181,M,2.4,0000*54
  66779858, $GNGGA,183259.40,4028.8827657,N,10650.3513575,W,4,22,0.7,2115.610,M,-12.181,M,1.4,0000*51
  66780859, $GNGGA,183300.40,4028.8826300,N,10650.3511714,W,4,21,0.7,2115.641,M,-12.181,M,2.4,0000*59
  66781857, $GNGGA,183301.40,4028.8824564,N,10650.3508980,W,4,21,0.7,2115.538,M,-12.181,M,1.4,0000*5B
  66782857, $GNGGA,183302.40,4028.8824392,N,10650.3506752,W,4,21,0.7,2115.514,M,-12.181,M,2.4,0000*55
  66783856, $GNGGA,183303.40,4028.8824266,N,10650.3505538,W,4,21,0.7,2115.494,M,-12.181,M,1.4,0000*59
  66784859, $GNGGA,183304.40,4028.8823556,N,10650.3503796,W,4,21,0.7,2115.509,M,-12.181,M,2.4,0000*5B
  66785858, $GNGGA,183305.40,4028.8822002,N,10650.3502697,W,4,22,0.7,2115.568,M,-12.181,M,1.4,0000*59
  66786856, $GNGGA,183306.40,4028.8821390,N,10650.3501160,W,4,23,0.6,2115.555,M,-12.181,M,2.4,0000*50
  66787861, $GNGGA,183307.40,4028.8821249,N,10650.3499638,W,4,23,0.6,2115.523,M,-12.181,M,1.4,0000*5C
  66788857, $GNGGA,183308.40,4028.8819279,N,10650.3498046,W,4,23,0.6,2115.526,M,-12.181,M,2.4,0000*53
  66789858, $GNGGA,183309.40,4028.8818116,N,10650.3495215,W,4,23,0.6,2115.456,M,-12.181,M,1.4,0000*55
  66790858, $GNGGA,183310.40,4028.8816436,N,10650.3492629,W,4,23,0.6,2115.465,M,-12.181,M,2.4,0000*5B
  66791863, $GNGGA,183311.40,4028.8814779,N,10650.3489755,W,4,23,0.6,2115.388,M,-12.181,M,1.4,0000*57
  66792856, $GNGGA,183312.40,4028.8812589,N,10650.3486215,W,4,23,0.6,2115.218,M,-12.181,M,2.4,0000*5A
  66793856, $GNGGA,183313.40,4028.8811894,N,10650.3482384,W,4,21,0.7,2115.016,M,-12.181,M,3.4,0000*5A
  66794855, $GNGGA,183314.40,4028.8810280,N,10650.3479321,W,4,21,0.8,2114.870,M,-12.181,M,4.4,0000*59
  66795857, $GNGGA,183315.40,4028.8808937,N,10650.3476643,W,4,22,0.7,2114.770,M,-12.181,M,1.4,0000*5E
  66796861, $GNGGA,183316.40,4028.8806279,N,10650.3472695,W,4,23,0.6,2114.653,M,-12.181,M,2.4,0000*5E
  66797858, $GNGGA,183317.40,4028.8803540,N,10650.3468541,W,4,22,0.7,2114.583,M,-12.181,M,1.4,0000*5B
  66798858, $GNGGA,183318.40,4028.8800799,N,10650.3464312,W,4,23,0.6,2114.509,M,-12.181,M,2.4,0000*5C
  66799858, $GNGGA,183319.40,4028.8798372,N,10650.3460331,W,4,22,0.7,2114.449,M,-12.181,M,1.4,0000*51
  66800857, $GNGGA,183320.40,4028.8795802,N,10650.3456380,W,4,21,0.7,2114.400,M,-12.181,M,2.4,0000*58
  66801857, $GNGGA,183321.40,4028.8792797,N,10650.3451835,W,4,22,0.7,2114.394,M,-12.181,M,1.4,0000*55
  66802858, $GNGGA,183322.40,4028.8790459,N,10650.3447097,W,4,22,0.7,2114.359,M,-12.181,M,2.4,0000*50
  66803855, $GNGGA,183323.40,4028.8787435,N,10650.3442347,W,4,22,0.7,2114.347,M,-12.181,M,1.4,0000*5A
  66804858, $GNGGA,183324.40,4028.8784703,N,10650.3438203,W,4,22,0.7,2114.330,M,-12.181,M,2.4,0000*57
  66805860, $GNGGA,183325.40,4028.8782152,N,10650.3433205,W,4,23,0.6,2114.281,M,-12.181,M,1.4,0000*57
  66806857, $GNGGA,183326.40,4028.8779137,N,10650.3427832,W,4,23,0.6,2114.240,M,-12.181,M,2.4,0000*56
  66807858, $GNGGA,183327.40,4028.8776364,N,10650.3423408,W,4,23,0.6,2114.221,M,-12.181,M,1.4,0000*59
  66808857, $GNGGA,183328.40,4028.8774606,N,10650.3420500,W,4,23,0.6,2114.224,M,-12.181,M,2.4,0000*59
  66809858, $GNGGA,183329.40,4028.8773600,N,10650.3418638,W,4,23,0.6,2114.235,M,-12.181,M,1.4,0000*59
  66810857, $GNGGA,183330.40,4028.8772489,N,10650.3417284,W,4,23,0.6,2114.247,M,-12.181,M,2.4,0000*59
  66811859, $GNGGA,183331.40,4028.8772861,N,10650.3416832,W,4,22,0.7,2114.380,M,-12.181,M,1.4,0000*5D
  66812857, $GNGGA,183332.40,4028.8773918,N,10650.3415590,W,4,23,0.6,2114.250,M,-12.181,M,2.4,0000*59
  66813858, $GNGGA,183333.40,4028.8775733,N,10650.3416445,W,4,22,0.7,2114.144,M,-12.181,M,3.4,0000*54
  66814859, $GNGGA,183334.40,4028.8776918,N,10650.3418404,W,4,22,0.7,2114.130,M,-12.181,M,4.4,0000*58
  66815859, $GNGGA,183335.40,4028.8777151,N,10650.3418800,W,4,22,0.7,2114.035,M,-12.181,M,1.4,0000*54
  66816858, $GNGGA,183336.40,4028.8778145,N,10650.3417719,W,4,22,0.7,2113.913,M,-12.181,M,2.4,0000*5C
  66817858, $GNGGA,183337.40,4028.8779338,N,10650.3419153,W,4,22,0.7,2113.878,M,-12.181,M,1.4,0000*5D
  66818858, $GNGGA,183338.40,4028.8782369,N,10650.3423127,W,4,22,0.7,2113.856,M,-12.181,M,2.4,0000*57
  66819857, $GNGGA,183339.40,4028.8785632,N,10650.3428442,W,4,22,0.7,2113.863,M,-12.181,M,1.4,0000*52
  66820860, $GNGGA,183340.40,4028.8788807,N,10650.3433955,W,4,21,0.8,2113.917,M,-12.181,M,2.4,0000*55
  66821860, $GNGGA,183341.40,4028.8792153,N,10650.3439805,W,4,21,0.8,2113.944,M,-12.181,M,1.4,0000*5C
  66822856, $GNGGA,183342.40,4028.8794847,N,10650.3445508,W,4,22,0.7,2114.007,M,-12.181,M,2.4,0000*58
  66823858, $GNGGA,183343.40,4028.8797915,N,10650.3450237,W,4,21,0.7,2113.976,M,-12.181,M,1.4,0000*5B
  66824856, $GNGGA,183344.40,4028.8800785,N,10650.3455469,W,4,21,0.7,2114.024,M,-12.181,M,2.4,0000*58
  66825858, $GNGGA,183345.40,4028.8803560,N,10650.3460781,W,4,22,0.7,2114.109,M,-12.181,M,1.4,0000*5E
  66826858, $GNGGA,183346.40,4028.8805871,N,10650.3465498,W,4,22,0.7,2114.257,M,-12.181,M,2.4,0000*53
  66827859, $GNGGA,183347.40,4028.8807875,N,10650.3470131,W,4,22,0.7,2114.404,M,-12.181,M,1.4,0000*55
  66828857, $GNGGA,183348.40,4028.8809986,N,10650.3474063,W,4,21,0.7,2114.646,M,-12.181,M,2.4,0000*5F
  66829854, $GNGGA,183349.40,4028.8811382,N,10650.3477854,W,4,22,0.7,2114.810,M,-12.181,M,1.4,0000*5B
  66830853, $GNGGA,183350.40,4028.8813204,N,10650.3481516,W,4,21,0.7,2114.974,M,-12.181,M,2.4,0000*5F
  66831856, $GNGGA,183351.40,4028.8814744,N,10650.3484862,W,4,21,0.7,2115.020,M,-12.181,M,1.4,0000*59
  66832856, $GNGGA,183352.40,4028.8816535,N,10650.3486804,W,4,22,0.7,2115.071,M,-12.181,M,2.4,0000*5A
  66833856, $GNGGA,183353.40,4028.8817692,N,10650.3486630,W,4,22,0.7,2115.038,M,-12.181,M,1.4,0000*53
  66834857, $GNGGA,183354.40,4028.8818094,N,10650.3487635,W,4,23,0.6,2115.070,M,-12.181,M,2.4,0000*50
  66835856, $GNGGA,183355.40,4028.8819487,N,10650.3490089,W,4,23,0.6,2115.162,M,-12.181,M,1.4,0000*50
  66836854, $GNGGA,183356.40,4028.8820987,N,10650.3493434,W,4,23,0.6,2115.237,M,-12.181,M,2.4,0000*55
  66837854, $GNGGA,183357.40,4028.8822541,N,10650.3495846,W,4,22,0.7,2115.183,M,-12.181,M,3.4,0000*52
  66838856, $GNGGA,183358.40,4028.8823436,N,10650.3497265,W,4,22,0.7,2115.194,M,-12.181,M,4.4,0000*55
  66839854, $GNGGA,183359.40,4028.8824095,N,10650.3498412,W,4,22,0.7,2115.215,M,-12.181,M,1.4,0000*58
  66840856, $GNGGA,183400.40,4028.8825282,N,10650.3501246,W,4,21,0.7,2115.320,M,-12.181,M,2.4,0000*57
  66841857, $GNGGA,183401.40,4028.8826867,N,10650.3503625,W,4,22,0.7,2115.290,M,-12.181,M,1.4,0000*5D
  66842855, $GNGGA,183402.40,4028.8828302,N,10650.3505462,W,4,21,0.7,2115.320,M,-12.181,M,2.4,0000*55
  66843854, $GNGGA,183403.40,4028.8830238,N,10650.3507683,W,4,21,0.7,2115.239,M,-12.181,M,1.4,0000*50
  66844858, $GNGGA,183404.40,4028.8831561,N,10650.3510078,W,4,21,0.7,2115.149,M,-12.181,M,2.4,0000*5E
  66845856, $GNGGA,183405.40,4028.8832542,N,10650.3513255,W,4,22,0.7,2115.070,M,-12.181,M,1.4,0000*58
  66846855, $GNGGA,183406.40,4028.8833440,N,10650.3513938,W,4,22,0.7,2115.011,M,-12.181,M,2.4,0000*5D
  66847856, $GNGGA,183407.40,4028.8833728,N,10650.3514737,W,4,22,0.7,2114.981,M,-12.181,M,1.4,0000*55
  66848856, $GNGGA,183408.40,4028.8833837,N,10650.3514739,W,4,22,0.7,2114.972,M,-12.181,M,2.4,0000*5A
  66849855, $GNGGA,183409.40,4028.8833182,N,10650.3514686,W,4,22,0.7,2115.037,M,-12.181,M,1.4,0000*53
  66850854, $GNGGA,183410.40,4028.8834203,N,10650.3516172,W,4,21,0.7,2115.027,M,-12.181,M,2.4,0000*59
  66851857, $GNGGA,183411.40,4028.8834879,N,10650.3518976,W,4,22,0.7,2114.938,M,-12.181,M,1.4,0000*5B
  66852858, $GNGGA,183412.40,4028.8835987,N,10650.3520629,W,4,22,0.7,2114.874,M,-12.181,M,2.4,0000*5D
  66853856, $GNGGA,183413.40,4028.8837079,N,10650.3520622,W,4,22,0.7,2114.778,M,-12.181,M,1.4,0000*5D
  66854855, $GNGGA,183414.40,4028.8837133,N,10650.3520566,W,4,22,0.7,2114.765,M,-12.181,M,2.4,0000*59
  66855855, $GNGGA,183415.40,4028.8837354,N,10650.3520386,W,4,22,0.7,2114.752,M,-12.181,M,1.4,0000*54
  66856856, $GNGGA,183416.40,4028.8837248,N,10650.3520397,W,4,22,0.7,2114.757,M,-12.181,M,2.4,0000*5D
  66857855, $GNGGA,183417.40,4028.8837334,N,10650.3520350,W,4,22,0.7,2114.759,M,-12.181,M,1.4,0000*50
  66858855, $GNGGA,183418.40,4028.8837226,N,10650.3520429,W,4,22,0.7,2114.749,M,-12.181,M,2.4,0000*56
  66859855, $GNGGA,183419.40,4028.8837140,N,10650.3520458,W,4,22,0.7,2114.760,M,-12.181,M,1.4,0000*5A
  66860858, $GNGGA,183420.40,4028.8837256,N,10650.3520368,W,4,22,0.7,2114.749,M,-12.181,M,2.4,0000*58
  66861857, $GNGGA,183421.40,4028.8837467,N,10650.3520228,W,4,22,0.7,2114.738,M,-12.181,M,3.4,0000*5F
  66862858, $GNGGA,183422.40,4028.8837449,N,10650.3520068,W,4,22,0.7,2114.775,M,-12.181,M,4.4,0000*58
  66863858, $GNGGA,183423.40,4028.8838414,N,10650.3521670,W,4,21,0.7,2114.748,M,-12.181,M,1.4,0000*58
  66864856, $GNGGA,183424.40,4028.8838769,N,10650.3524027,W,4,22,0.7,2114.668,M,-12.181,M,2.4,0000*54
  66865855, $GNGGA,183425.40,4028.8839798,N,10650.3525795,W,4,22,0.7,2114.617,M,-12.181,M,1.4,0000*5E
  66866855, $GNGGA,183426.40,4028.8840917,N,10650.3526840,W,4,22,0.7,2114.514,M,-12.181,M,2.4,0000*5D
  66867855, $GNGGA,183427.40,4028.8841754,N,10650.3528135,W,4,21,0.7,2114.487,M,-12.181,M,1.4,0000*5A
  66868855, $GNGGA,183428.40,4028.8843053,N,10650.3530625,W,4,21,0.7,2114.401,M,-12.181,M,2.4,0000*55
  66869857, $GNGGA,183429.40,4028.8844722,N,10650.3533232,W,4,21,0.7,2114.389,M,-12.181,M,1.4,0000*57
  66870854, $GNGGA,183430.40,4028.8845894,N,10650.3536320,W,4,20,0.7,2114.457,M,-12.181,M,2.4,0000*5D
  66871853, $GNGGA,183431.40,4028.8848361,N,10650.3538828,W,4,21,0.7,2114.347,M,-12.181,M,1.4,0000*59
  66872853, $GNGGA,183432.40,4028.8849037,N,10650.3538774,W,4,21,0.7,2114.291,M,-12.181,M,2.4,0000*54
  66873854, $GNGGA,183433.40,4028.8849196,N,10650.3538891,W,4,21,0.7,2114.279,M,-12.181,M,3.4,0000*5C
  66874853, $GNGGA,183434.40,4028.8849242,N,10650.3538795,W,4,21,0.7,2114.274,M,-12.181,M,2.4,0000*56
  66875850, $GNGGA,183435.40,4028.8848408,N,10650.3539059,W,4,21,0.7,2114.353,M,-12.181,M,1.4,0000*5F
  66876853, $GNGGA,183436.40,4028.8848271,N,10650.3539872,W,4,21,0.7,2114.417,M,-12.181,M,2.4,0000*51
  66877856, $GNGGA,183437.40,4028.8849032,N,10650.3542074,W,4,21,0.7,2114.502,M,-12.181,M,1.4,0000*50
  66878854, $GNGGA,183438.40,4028.8849709,N,10650.3543575,W,4,21,0.7,2114.528,M,-12.181,M,2.4,0000*5E
  66879855, $GNGGA,183439.40,4028.8849997,N,10650.3545532,W,4,21,0.7,2114.644,M,-12.181,M,1.4,0000*59
  66880854, $GNGGA,183440.40,4028.8851224,N,10650.3547928,W,4,21,0.7,2114.648,M,-12.181,M,2.4,0000*57
  66881854, $GNGGA,183441.40,4028.8852136,N,10650.3549942,W,4,21,0.7,2114.646,M,-12.181,M,1.4,0000*5A
  66882855, $GNGGA,183442.40,4028.8853142,N,10650.3552884,W,4,22,0.7,2114.712,M,-12.181,M,2.4,0000*5A
  66883858, $GNGGA,183443.40,4028.8853547,N,10650.3557091,W,4,21,0.7,2114.934,M,-12.181,M,1.4,0000*59
  66884852, $GNGGA,183444.40,4028.8854684,N,10650.3560505,W,4,21,0.7,2114.969,M,-12.181,M,2.4,0000*52
  66885854, $GNGGA,183445.40,4028.8855965,N,10650.3563981,W,4,20,0.8,2115.018,M,-12.181,M,1.4,0000*52
  66886855, $GNGGA,183446.40,4028.8857662,N,10650.3566808,W,4,21,0.7,2115.042,M,-12.181,M,2.4,0000*5C
  66887851, $GNGGA,183447.40,4028.8858973,N,10650.3569391,W,4,21,0.7,2115.097,M,-12.181,M,1.4,0000*52
  66888854, $GNGGA,183448.40,4028.8860844,N,10650.3573384,W,4,21,0.7,2115.151,M,-12.181,M,2.4,0000*54
  66889854, $GNGGA,183449.40,4028.8862411,N,10650.3576424,W,4,21,0.7,2115.298,M,-12.181,M,1.4,0000*56
  66890854, $GNGGA,183450.40,4028.8865009,N,10650.3580664,W,4,21,0.7,2115.321,M,-12.181,M,2.4,0000*5B
  66891852, $GNGGA,183451.40,4028.8866882,N,10650.3584994,W,4,21,0.7,2115.402,M,-12.181,M,1.4,0000*53
  66892853, $GNGGA,183452.40,4028.8868872,N,10650.3588113,W,4,21,0.7,2115.464,M,-12.181,M,2.4,0000*59
  66893857, $GNGGA,183453.40,4028.8870702,N,10650.3592421,W,4,21,0.7,2115.528,M,-12.181,M,1.4,0000*5C
  66894851, $GNGGA,183454.40,4028.8873253,N,10650.3597236,W,4,21,0.7,2115.597,M,-12.181,M,2.4,0000*5B
  66895852, $GNGGA,183455.40,4028.8875370,N,10650.3600955,W,4,21,0.7,2115.623,M,-12.181,M,1.4,0000*50
  66896852, $GNGGA,183456.40,4028.8876937,N,10650.3604374,W,4,21,0.7,2115.683,M,-12.181,M,2.4,0000*5D
  66897854, $GNGGA,183457.40,4028.8878358,N,10650.3606492,W,4,21,0.7,2115.692,M,-12.181,M,1.4,0000*5F
  66898853, $GNGGA,183458.40,4028.8878772,N,10650.3607455,W,4,21,0.7,2115.721,M,-12.181,M,2.4,0000*5C
  66899851, $GNGGA,183459.40,4028.8878740,N,10650.3607122,W,4,21,0.7,2115.700,M,-12.181,M,1.4,0000*59
  66900852, $GNGGA,183500.40,4028.8878724,N,10650.3607107,W,4,21,0.7,2115.690,M,-12.181,M,2.4,0000*5A
  66901853, $GNGGA,183501.40,4028.8878717,N,10650.3607236,W,4,21,0.7,2115.697,M,-12.181,M,1.4,0000*5E
  66902851, $GNGGA,183502.40,4028.8878466,N,10650.3608745,W,4,20,0.8,2115.875,M,-12.181,M,2.4,0000*59
  66903853, $GNGGA,183503.40,4028.8878221,N,10650.3608887,W,4,18,0.8,2115.775,M,-12.181,M,1.4,0000*5B
  66904852, $GNGGA,183504.40,4028.8881033,N,10650.3607067,W,4,21,0.7,2115.747,M,-12.181,M,2.4,0000*55
  66905853, $GNGGA,183505.40,4028.8883341,N,10650.3606005,W,4,21,0.7,2115.608,M,-12.181,M,1.4,0000*5C
  66906852, $GNGGA,183506.40,4028.8883383,N,10650.3605888,W,4,20,0.7,2115.565,M,-12.181,M,2.4,0000*55
  66907854, $GNGGA,183507.40,4028.8884830,N,10650.3605873,W,4,21,0.7,2115.560,M,-12.181,M,1.4,0000*53
  66908854, $GNGGA,183508.40,4028.8884479,N,10650.3607518,W,4,21,0.7,2115.652,M,-12.181,M,2.4,0000*5E
  66909854, $GNGGA,183509.40,4028.8883165,N,10650.3606102,W,4,21,0.7,2115.562,M,-12.181,M,1.4,0000*5D
  66910855, $GNGGA,183510.40,4028.8881177,N,10650.3604992,W,4,21,0.7,2115.515,M,-12.181,M,2.4,0000*54
  66911851, $GNGGA,183511.40,4028.8881501,N,10650.3604422,W,4,21,0.7,2115.356,M,-12.181,M,1.4,0000*54
  66912852, $GNGGA,183512.40,4028.8881659,N,10650.3604130,W,4,21,0.7,2115.327,M,-12.181,M,2.4,0000*5A
  66913858, $GNGGA,183513.40,4028.8881633,N,10650.3604011,W,4,21,0.7,2115.330,M,-12.181,M,1.4,0000*50
  66914852, $GNGGA,183514.40,4028.8881470,N,10650.3603414,W,4,21,0.7,2115.328,M,-12.181,M,2.4,0000*5E
  66915853, $GNGGA,183515.40,4028.8881122,N,10650.3602644,W,4,21,0.7,2115.305,M,-12.181,M,1.4,0000*57
  66916854, $GNGGA,183516.40,4028.8880581,N,10650.3601031,W,4,20,0.7,2115.270,M,-12.181,M,2.4,0000*5E
  66917854, $GNGGA,183517.40,4028.8880562,N,10650.3600887,W,4,20,0.7,2115.245,M,-12.181,M,1.4,0000*53
  66918852, $GNGGA,183518.40,4028.8880585,N,10650.3600892,W,4,21,0.7,2115.242,M,-12.181,M,2.4,0000*54
  66919853, $GNGGA,183519.40,4028.8880576,N,10650.3600897,W,4,20,0.7,2115.253,M,-12.181,M,1.4,0000*5E
  66920851, $GNGGA,183520.40,4028.8880572,N,10650.3600893,W,4,20,0.7,2115.248,M,-12.181,M,2.4,0000*5D
  66921852, $GNGGA,183521.40,4028.8880434,N,10650.3600725,W,4,20,0.7,2115.255,M,-12.181,M,1.4,0000*52
  66922854, $GNGGA,183522.40,4028.8880456,N,10650.3600671,W,4,20,0.7,2115.248,M,-12.181,M,2.4,0000*5A
  66923860, $GNGGA,183523.40,4028.8880449,N,10650.3600623,W,4,20,0.7,2115.245,M,-12.181,M,1.4,0000*5C
  66924851, $GNGGA,183524.40,4028.8880447,N,10650.3600580,W,4,20,0.7,2115.245,M,-12.181,M,2.4,0000*5C
  66925853, $GNGGA,183525.40,4028.8880473,N,10650.3600629,W,4,20,0.7,2115.249,M,-12.181,M,1.4,0000*55
  66926853, $GNGGA,183526.40,4028.8880482,N,10650.3600626,W,4,20,0.7,2115.246,M,-12.181,M,2.4,0000*5B
  66927851, $GNGGA,183527.40,4028.8880460,N,10650.3600588,W,4,20,0.7,2115.241,M,-12.181,M,1.4,0000*55
  66928853, $GNGGA,183528.40,4028.8880456,N,10650.3600614,W,4,20,0.7,2115.248,M,-12.181,M,2.4,0000*53
  66929851, $GNGGA,183529.40,4028.8880448,N,10650.3600590,W,4,20,0.7,2115.251,M,-12.181,M,1.4,0000*59
  66930852, $GNGGA,183530.40,4028.8880450,N,10650.3600627,W,4,20,0.7,2115.250,M,-12.181,M,2.4,0000*55
  66931852, $GNGGA,183531.40,4028.8880432,N,10650.3600586,W,4,20,0.7,2115.240,M,-12.181,M,1.4,0000*5A
  66932850, $GNGGA,183532.40,4028.8880464,N,10650.3600560,W,4,20,0.7,2115.235,M,-12.181,M,2.4,0000*53
  66933857, $GNGGA,183533.40,4028.8880433,N,10650.3600498,W,4,20,0.7,2115.233,M,-12.181,M,1.4,0000*53
  66934854, $GNGGA,183534.40,4028.8880027,N,10650.3599807,W,4,21,0.7,2115.231,M,-12.181,M,2.4,0000*5C
  66935851, $GNGGA,183535.40,4028.8879734,N,10650.3598934,W,4,19,0.8,2115.225,M,-12.181,M,1.4,0000*5C
  66936848, $GNGGA,183536.40,4028.8879459,N,10650.3598494,W,4,21,0.7,2115.225,M,-12.181,M,2.4,0000*57
  66937852, $GNGGA,183537.40,4028.8878941,N,10650.3597575,W,4,21,0.7,2115.205,M,-12.181,M,1.4,0000*53
  66938847, $GNGGA,183538.40,4028.8877873,N,10650.3595395,W,4,21,0.7,2115.143,M,-12.181,M,2.4,0000*5B
  66939849, $GNGGA,183539.40,4028.8877002,N,10650.3594121,W,4,21,0.7,2115.175,M,-12.181,M,1.4,0000*5E
  66940852, $GNGGA,183540.40,4028.8876631,N,10650.3593512,W,4,21,0.7,2115.173,M,-12.181,M,2.4,0000*51
  66941852, $GNGGA,183541.40,4028.8876215,N,10650.3592376,W,4,21,0.7,2115.115,M,-12.181,M,1.4,0000*54
  66942851, $GNGGA,183542.40,4028.8875635,N,10650.3591581,W,4,21,0.7,2115.122,M,-12.181,M,2.4,0000*58
  66943852, $GNGGA,183543.40,4028.8874816,N,10650.3590325,W,4,20,0.7,2115.094,M,-12.181,M,1.4,0000*50
  66944852, $GNGGA,183544.40,4028.8873832,N,10650.3588694,W,4,21,0.7,2115.091,M,-12.181,M,2.4,0000*57
  66945851, $GNGGA,183545.40,4028.8872945,N,10650.3587129,W,4,21,0.7,2115.099,M,-12.181,M,1.4,0000*53
  66946852, $GNGGA,183546.40,4028.8871354,N,10650.3584949,W,4,21,0.7,2115.118,M,-12.181,M,2.4,0000*5F
  66947851, $GNGGA,183547.40,4028.8869560,N,10650.3581088,W,4,21,0.7,2115.033,M,-12.181,M,1.4,0000*5C
  66948851, $GNGGA,183548.40,4028.8867589,N,10650.3577460,W,4,21,0.7,2114.969,M,-12.181,M,2.4,0000*55
  66949851, $GNGGA,183549.40,4028.8866422,N,10650.3575027,W,4,21,0.7,2114.929,M,-12.181,M,1.4,0000*57
  66950851, $GNGGA,183550.40,4028.8865238,N,10650.3573122,W,4,21,0.7,2114.908,M,-12.181,M,2.4,0000*53
  66951851, $GNGGA,183551.40,4028.8862963,N,10650.3569987,W,4,21,0.7,2114.864,M,-12.181,M,1.4,0000*54
  66952852, $GNGGA,183552.40,4028.8860704,N,10650.3565739,W,4,21,0.7,2114.800,M,-12.181,M,2.4,0000*5C
  66953852, $GNGGA,183553.40,4028.8858935,N,10650.3561387,W,4,21,0.7,2114.724,M,-12.181,M,1.4,0000*55
  66954851, $GNGGA,183554.40,4028.8857300,N,10650.3557072,W,4,21,0.7,2114.666,M,-12.181,M,2.4,0000*59
  66955852, $GNGGA,183555.40,4028.8856451,N,10650.3554186,W,4,21,0.7,2114.570,M,-12.181,M,1.4,0000*54
  66956853, $GNGGA,183556.40,4028.8855043,N,10650.3551925,W,4,20,0.7,2114.510,M,-12.181,M,2.4,0000*53
  66957854, $GNGGA,183557.40,4028.8854110,N,10650.3549918,W,4,21,0.7,2114.465,M,-12.181,M,1.4,0000*52
  66958855, $GNGGA,183558.40,4028.8853699,N,10650.3549273,W,4,21,0.7,2114.463,M,-12.181,M,2.4,0000*5F
  66959852, $GNGGA,183559.40,4028.8853386,N,10650.3548533,W,4,21,0.7,2114.467,M,-12.181,M,1.4,0000*50
  66960851, $GNGGA,183600.40,4028.8853043,N,10650.3548286,W,4,21,0.7,2114.491,M,-12.181,M,2.4,0000*56
  66961849, $GNGGA,183601.40,4028.8852875,N,10650.3548348,W,4,21,0.7,2114.502,M,-12.181,M,1.4,0000*50
  66962852, $GNGGA,183602.40,4028.8852868,N,10650.3547752,W,4,21,0.7,2114.480,M,-12.181,M,2.4,0000*57
  66963848, $GNGGA,183603.40,4028.8852031,N,10650.3548032,W,4,21,0.7,2114.452,M,-12.181,M,3.4,0000*52
  66964848, $GNGGA,183604.40,4028.8852233,N,10650.3547749,W,4,21,0.7,2114.442,M,-12.181,M,2.4,0000*51
  66965846, $GNGGA,183605.40,4028.8852134,N,10650.3547763,W,4,21,0.7,2114.436,M,-12.181,M,1.4,0000*5C
  66966851, $GNGGA,183606.40,4028.8852040,N,10650.3547841,W,4,21,0.7,2114.443,M,-12.181,M,2.4,0000*53
  66967848, $GNGGA,183607.40,4028.8851869,N,10650.3547974,W,4,21,0.7,2114.449,M,-12.181,M,1.4,0000*5C
  66968851, $GNGGA,183608.40,4028.8851884,N,10650.3547936,W,4,21,0.7,2114.441,M,-12.181,M,2.4,0000*5D
  66969850, $GNGGA,183609.40,4028.8851864,N,10650.3547956,W,4,21,0.7,2114.446,M,-12.181,M,1.4,0000*50
  66970853, $GNGGA,183610.40,4028.8852023,N,10650.3547815,W,4,21,0.7,2114.437,M,-12.181,M,2.4,0000*53
  66971851, $GNGGA,183611.40,4028.8852184,N,10650.3547641,W,4,21,0.7,2114.420,M,-12.181,M,1.4,0000*54
  66972852, $GNGGA,183612.40,4028.8852188,N,10650.3547654,W,4,21,0.7,2114.431,M,-12.181,M,2.4,0000*5C
  66973851, $GNGGA,183613.40,4028.8852260,N,10650.3547505,W,4,21,0.7,2114.417,M,-12.181,M,1.4,0000*58
  66974851, $GNGGA,183614.40,4028.8852316,N,10650.3547439,W,4,21,0.7,2114.408,M,-12.181,M,2.4,0000*5C
  66975851, $GNGGA,183615.40,4028.8852418,N,10650.3547334,W,4,21,0.7,2114.410,M,-12.181,M,1.4,0000*54
  66976853, $GNGGA,183616.40,4028.8852197,N,10650.3547640,W,4,21,0.7,2114.434,M,-12.181,M,2.4,0000*56
  66977851, $GNGGA,183617.40,4028.8852104,N,10650.3547739,W,4,21,0.7,2114.429,M,-12.181,M,1.4,0000*5D
  66978851, $GNGGA,183618.40,4028.8852187,N,10650.3547661,W,4,21,0.7,2114.432,M,-12.181,M,2.4,0000*5C
  66979851, $GNGGA,183619.40,4028.8852292,N,10650.3547606,W,4,21,0.7,2114.416,M,-12.181,M,1.4,0000*5E
  66980852, $GNGGA,183620.40,4028.8852866,N,10650.3547118,W,4,21,0.7,2114.378,M,-12.181,M,2.4,0000*51
  66981849, $GNGGA,183621.40,4028.8853937,N,10650.3546156,W,4,21,0.7,2114.255,M,-12.181,M,1.4,0000*52
  66982853, $GNGGA,183622.40,4028.8854197,N,10650.3545603,W,4,21,0.7,2114.177,M,-12.181,M,2.4,0000*50
  66983850, $GNGGA,183623.40,4028.8853618,N,10650.3544754,W,4,21,0.7,2114.179,M,-12.181,M,3.4,0000*5B
  66984852, $GNGGA,183624.40,4028.8853664,N,10650.3544833,W,4,21,0.7,2114.180,M,-12.181,M,2.4,0000*5E
  66985853, $GNGGA,183625.40,4028.8853676,N,10650.3544817,W,4,21,0.7,2114.178,M,-12.181,M,1.4,0000*5E
  66986854, $GNGGA,183626.40,4028.8853668,N,10650.3544817,W,4,21,0.7,2114.172,M,-12.181,M,2.4,0000*5B
  66987853, $GNGGA,183627.40,4028.8853654,N,10650.3544785,W,4,21,0.7,2114.178,M,-12.181,M,1.4,0000*58
  66988853, $GNGGA,183628.40,4028.8853504,N,10650.3544625,W,4,21,0.7,2114.185,M,-12.181,M,2.4,0000*5B
  66989853, $GNGGA,183629.40,4028.8853115,N,10650.3543014,W,4,21,0.7,2114.109,M,-12.181,M,1.4,0000*5A
  66990854, $GNGGA,183630.40,4028.8852183,N,10650.3541487,W,4,21,0.7,2114.089,M,-12.181,M,2.4,0000*5A
  66991852, $GNGGA,183631.40,4028.8851522,N,10650.3539926,W,4,21,0.7,2114.051,M,-12.181,M,1.4,0000*58
  66992853, $GNGGA,183632.40,4028.8850696,N,10650.3538588,W,4,21,0.7,2114.113,M,-12.181,M,2.4,0000*5B
  66993852, $GNGGA,183633.40,4028.8850011,N,10650.3537122,W,4,21,0.7,2114.120,M,-12.181,M,1.4,0000*5B
  66994851, $GNGGA,183634.40,4028.8848355,N,10650.3536366,W,4,21,0.7,2114.215,M,-12.181,M,2.4,0000*53
  66995849, $GNGGA,183635.40,4028.8847968,N,10650.3534938,W,4,21,0.7,2114.148,M,-12.181,M,1.4,0000*52
  66996852, $GNGGA,183636.40,4028.8847169,N,10650.3533789,W,4,21,0.7,2114.106,M,-12.181,M,2.4,0000*52
  66997850, $GNGGA,183637.40,4028.8847492,N,10650.3533175,W,4,21,0.7,2114.045,M,-12.181,M,1.4,0000*52
  66998854, $GNGGA,183638.40,4028.8847394,N,10650.3533175,W,4,21,0.7,2114.047,M,-12.181,M,2.4,0000*5D
  66999852, $GNGGA,183639.40,4028.8846777,N,10650.3532732,W,4,21,0.7,2114.041,M,-12.181,M,1.4,0000*55
  67000851, $GNGGA,183640.40,4028.8846574,N,10650.3532461,W,4,22,0.7,2114.047,M,-12.181,M,2.4,0000*59
  67001850, $GNGGA,183641.40,4028.8846618,N,10650.3532352,W,4,22,0.7,2114.040,M,-12.181,M,1.4,0000*52
  67002856, $GNGGA,183642.40,4028.8845839,N,10650.3531268,W,4,22,0.7,2114.049,M,-12.181,M,2.4,0000*5E
  67003853, $GNGGA,183643.40,4028.8845466,N,10650.3529408,W,4,22,0.7,2114.020,M,-12.181,M,1.4,0000*5C
  67004854, $GNGGA,183644.40,4028.8845504,N,10650.3528855,W,4,22,0.7,2113.992,M,-12.181,M,2.4,0000*5F
  67005849, $GNGGA,183645.40,4028.8845471,N,10650.3528900,W,4,22,0.7,2113.987,M,-12.181,M,1.4,0000*5B
  67006855, $GNGGA,183646.40,4028.8845334,N,10650.3528375,W,4,22,0.7,2113.982,M,-12.181,M,2.4,0000*50
  67007849, $GNGGA,183647.40,4028.8844814,N,10650.3526544,W,4,21,0.7,2114.032,M,-12.181,M,1.4,0000*56
  67008852, $GNGGA,183648.40,4028.8844130,N,10650.3525591,W,4,21,0.7,2114.116,M,-12.181,M,2.4,0000*59
  67009853, $GNGGA,183649.40,4028.8843634,N,10650.3524342,W,4,22,0.7,2114.127,M,-12.181,M,3.4,0000*55
  67010853, $GNGGA,183650.40,4028.8843312,N,10650.3523161,W,4,22,0.7,2114.098,M,-12.181,M,4.4,0000*5A
  67011848, $GNGGA,183651.40,4028.8843005,N,10650.3521419,W,4,22,0.7,2114.042,M,-12.181,M,1.4,0000*54
  67012854, $GNGGA,183652.40,4028.8842587,N,10650.3520637,W,4,22,0.7,2114.045,M,-12.181,M,2.4,0000*52
  67013852, $GNGGA,183653.40,4028.8842655,N,10650.3520389,W,4,22,0.7,2114.011,M,-12.181,M,1.4,0000*5D
  67014851, $GNGGA,183654.40,4028.8842584,N,10650.3520383,W,4,22,0.7,2114.012,M,-12.181,M,2.4,0000*5F
  67015851, $GNGGA,183655.40,4028.8842441,N,10650.3520472,W,4,22,0.7,2114.052,M,-12.181,M,1.4,0000*58
  67016854, $GNGGA,183656.40,4028.8842290,N,10650.3520485,W,4,22,0.7,2114.064,M,-12.181,M,2.4,0000*5F
  67017851, $GNGGA,183657.40,4028.8842153,N,10650.3520538,W,4,22,0.7,2114.094,M,-12.181,M,1.4,0000*59
  67018852, $GNGGA,183658.40,4028.8842119,N,10650.3520557,W,4,22,0.7,2114.098,M,-12.181,M,2.4,0000*5E
  67019849, $GNGGA,183659.40,4028.8842101,N,10650.3520599,W,4,22,0.7,2114.096,M,-12.181,M,1.4,0000*59
  67020852, $GNGGA,183700.40,4028.8842081,N,10650.3520631,W,4,22,0.7,2114.089,M,-12.181,M,2.4,0000*51
  67021851, $GNGGA,183701.40,4028.8842108,N,10650.3520579,W,4,22,0.7,2114.091,M,-12.181,M,1.4,0000*55
  67022853, $GNGGA,183702.40,4028.8842103,N,10650.3520594,W,4,22,0.7,2114.099,M,-12.181,M,2.4,0000*55
  67023853, $GNGGA,183703.40,4028.8842094,N,10650.3520581,W,4,22,0.7,2114.097,M,-12.181,M,1.4,0000*52
  67024855, $GNGGA,183704.40,4028.8842069,N,10650.3520600,W,4,22,0.7,2114.084,M,-12.181,M,2.4,0000*5C
  67025851, $GNGGA,183705.40,4028.8842090,N,10650.3520586,W,4,22,0.7,2114.084,M,-12.181,M,1.4,0000*55
  67026854, $GNGGA,183706.40,4028.8842108,N,10650.3520568,W,4,22,0.7,2114.078,M,-12.181,M,2.4,0000*56
  67027852, $GNGGA,183707.40,4028.8842085,N,10650.3520598,W,4,22,0.7,2114.084,M,-12.181,M,1.4,0000*5C
  67028854, $GNGGA,183708.40,4028.8842041,N,10650.3520629,W,4,22,0.7,2114.079,M,-12.181,M,2.4,0000*53
  67029852, $GNGGA,183709.40,4028.8842064,N,10650.3520599,W,4,22,0.7,2114.090,M,-12.181,M,1.4,0000*59
  67030856, $GNGGA,183710.40,4028.8842111,N,10650.3520542,W,4,22,0.7,2114.088,M,-12.181,M,2.4,0000*5E
  67031853, $GNGGA,183711.40,4028.8842153,N,10650.3520442,W,4,22,0.7,2114.085,M,-12.181,M,1.4,0000*56
  67032855, $GNGGA,183712.40,4028.8842146,N,10650.3520490,W,4,22,0.7,2114.096,M,-12.181,M,2.4,0000*5F
  67033861, $GNGGA,183713.40,4028.8842094,N,10650.3520530,W,4,22,0.7,2114.088,M,-12.181,M,1.4,0000*57
  67034857, $GNGGA,183714.40,4028.8842036,N,10650.3520589,W,4,22,0.7,2114.100,M,-12.181,M,2.4,0000*58
  67035854, $GNGGA,183715.40,4028.8841847,N,10650.3520466,W,4,22,0.7,2114.141,M,-12.181,M,1.4,0000*52
  67036855, $GNGGA,183716.40,4028.8842065,N,10650.3520304,W,4,22,0.7,2114.104,M,-12.181,M,2.4,0000*5B
  67037852, $GNGGA,183717.40,4028.8842083,N,10650.3520325,W,4,22,0.7,2114.100,M,-12.181,M,1.4,0000*56
  67038855, $GNGGA,183718.40,4028.8842060,N,10650.3520365,W,4,22,0.7,2114.102,M,-12.181,M,2.4,0000*51
  67039856, $GNGGA,183719.40,4028.8842066,N,10650.3520392,W,4,22,0.7,2114.104,M,-12.181,M,1.4,0000*5B
  67040857, $GNGGA,183720.40,4028.8841654,N,10650.3519965,W,4,22,0.7,2114.196,M,-12.181,M,2.4,0000*55
  67041855, $GNGGA,183721.40,4028.8840724,N,10650.3518033,W,4,22,0.7,2114.288,M,-12.181,M,1.4,0000*57
  67042857, $GNGGA,183722.40,4028.8839393,N,10650.3516570,W,4,22,0.7,2114.399,M,-12.181,M,2.4,0000*5C
  67043856, $GNGGA,183723.40,4028.8838946,N,10650.3515097,W,4,22,0.7,2114.405,M,-12.181,M,1.4,0000*50
  67044852, $GNGGA,183724.40,4028.8838813,N,10650.3514543,W,4,22,0.7,2114.418,M,-12.181,M,2.4,0000*54
  67045854, $GNGGA,183725.40,4028.8838540,N,10650.3512972,W,4,23,0.6,2114.482,M,-12.181,M,1.4,0000*56
  67046856, $GNGGA,183726.40,4028.8838193,N,10650.3512262,W,4,23,0.6,2114.493,M,-12.181,M,2.4,0000*56
  67047854, $GNGGA,183727.40,4028.8838165,N,10650.3510915,W,4,23,0.6,2114.506,M,-12.181,M,1.4,0000*59
  67048858, $GNGGA,183728.40,4028.8837981,N,10650.3510416,W,4,23,0.6,2114.476,M,-12.181,M,2.4,0000*50
  67049855, $GNGGA,183729.40,4028.8837802,N,10650.3510474,W,4,23,0.6,2114.467,M,-12.181,M,1.4,0000*5C
  67050855, $GNGGA,183730.40,4028.8837937,N,10650.3510476,W,4,23,0.6,2114.462,M,-12.181,M,2.4,0000*57
  67051856, $GNGGA,183731.40,4028.8838241,N,10650.3510350,W,4,23,0.6,2114.502,M,-12.181,M,1.4,0000*54
  67052857, $GNGGA,183732.40,4028.8837736,N,10650.3509305,W,4,22,0.7,2114.573,M,-12.181,M,2.4,0000*50
  67053854, $GNGGA,183733.40,4028.8838108,N,10650.3508934,W,4,23,0.6,2114.490,M,-12.181,M,1.4,0000*53
  67054854, $GNGGA,183734.40,4028.8838052,N,10650.3508190,W,4,23,0.6,2114.507,M,-12.181,M,2.4,0000*50
  67055852, $GNGGA,183735.40,4028.8838245,N,10650.3508328,W,4,23,0.6,2114.531,M,-12.181,M,1.4,0000*52
  67056857, $GNGGA,183736.40,4028.8838186,N,10650.3508506,W,4,23,0.6,2114.499,M,-12.181,M,2.4,0000*57
  67057856, $GNGGA,183737.40,4028.8838203,N,10650.3508992,W,4,23,0.6,2114.547,M,-12.181,M,1.4,0000*58
  67058857, $GNGGA,183738.40,4028.8837981,N,10650.3509521,W,4,23,0.6,2114.610,M,-12.181,M,2.4,0000*5E
  67059854, $GNGGA,183739.40,4028.8837230,N,10650.3509166,W,4,21,0.7,2114.606,M,-12.181,M,1.4,0000*5E
  67060854, $GNGGA,183740.40,4028.8837219,N,10650.3508629,W,4,21,0.7,2114.557,M,-12.181,M,2.4,0000*52
  67061854, $GNGGA,183741.40,4028.8836367,N,10650.3507274,W,4,22,0.7,2114.554,M,-12.181,M,1.4,0000*5A
  67062854, $GNGGA,183742.40,4028.8835398,N,10650.3505914,W,4,23,0.6,2114.563,M,-12.181,M,2.4,0000*52
  67063861, $GNGGA,183743.40,4028.8834741,N,10650.3504321,W,4,22,0.7,2114.606,M,-12.181,M,1.4,0000*5C
  67064854, $GNGGA,183744.40,4028.8834433,N,10650.3503942,W,4,23,0.6,2114.606,M,-12.181,M,2.4,0000*56
  67065854, $GNGGA,183745.40,4028.8833519,N,10650.3502861,W,4,22,0.7,2114.624,M,-12.181,M,1.4,0000*5B
  67066856, $GNGGA,183746.40,4028.8833166,N,10650.3500059,W,4,22,0.7,2114.641,M,-12.181,M,2.4,0000*55
  67067855, $GNGGA,183747.40,4028.8831012,N,10650.3497058,W,4,23,0.6,2114.652,M,-12.181,M,1.4,0000*5B
  67068856, $GNGGA,183748.40,4028.8828752,N,10650.3493668,W,4,21,0.7,2114.639,M,-12.181,M,2.4,0000*53
  67069854, $GNGGA,183749.40,4028.8826113,N,10650.3489027,W,4,21,0.7,2114.552,M,-12.181,M,1.4,0000*54
  67070854, $GNGGA,183750.40,4028.8824017,N,10650.3485050,W,4,21,0.7,2114.587,M,-12.181,M,2.4,0000*5C
  67071855, $GNGGA,183751.40,4028.8822274,N,10650.3481509,W,4,21,0.7,2114.486,M,-12.181,M,1.4,0000*52
  67072858, $GNGGA,183752.40,4028.8820053,N,10650.3477749,W,4,22,0.7,2114.365,M,-12.181,M,2.4,0000*51
  67073854, $GNGGA,183753.40,4028.8817787,N,10650.3475008,W,4,20,0.7,2114.261,M,-12.181,M,1.4,0000*5E
  67074855, $GNGGA,183754.40,4028.8817580,N,10650.3472682,W,4,20,0.7,2114.142,M,-12.181,M,2.4,0000*5E
  67075855, $GNGGA,183755.40,4028.8816328,N,10650.3471264,W,4,20,0.7,2114.126,M,-12.181,M,1.4,0000*54
  67076854, $GNGGA,183756.40,4028.8814733,N,10650.3469728,W,4,21,0.7,2114.066,M,-12.181,M,2.4,0000*58
  67077855, $GNGGA,183757.40,4028.8812730,N,10650.3466392,W,4,23,0.6,2113.938,M,-12.181,M,1.4,0000*53
  67078857, $GNGGA,183758.40,4028.8810791,N,10650.3463715,W,4,22,0.7,2113.866,M,-12.181,M,2.4,0000*52
  67079856, $GNGGA,183759.40,4028.8809799,N,10650.3462278,W,4,21,0.7,2113.840,M,-12.181,M,1.4,0000*58
  67080855, $GNGGA,183800.40,4028.8808514,N,10650.3460727,W,4,22,0.7,2113.839,M,-12.181,M,2.4,0000*5E
  67081856, $GNGGA,183801.40,4028.8806882,N,10650.3457998,W,4,22,0.7,2113.776,M,-12.181,M,1.4,0000*5A
  67082856, $GNGGA,183802.40,4028.8805487,N,10650.3456369,W,4,22,0.7,2113.771,M,-12.181,M,2.4,0000*52
  67083856, $GNGGA,183803.40,4028.8804110,N,10650.3453570,W,4,22,0.7,2113.732,M,-12.181,M,1.4,0000*56
  67084858, $GNGGA,183804.40,4028.8802964,N,10650.3451794,W,4,22,0.7,2113.725,M,-12.181,M,2.4,0000*53
  67085855, $GNGGA,183805.40,4028.8802172,N,10650.3450713,W,4,22,0.7,2113.718,M,-12.181,M,1.4,0000*5E
  67086856, $GNGGA,183806.40,4028.8801077,N,10650.3448994,W,4,22,0.7,2113.715,M,-12.181,M,2.4,0000*5C
  67087856, $GNGGA,183807.40,4028.8799813,N,10650.3447233,W,4,22,0.7,2113.747,M,-12.181,M,1.4,0000*54
  67088856, $GNGGA,183808.40,4028.8798694,N,10650.3444926,W,4,22,0.7,2113.735,M,-12.181,M,2.4,0000*51
  67089855, $GNGGA,183809.40,4028.8797180,N,10650.3442074,W,4,23,0.6,2113.719,M,-12.181,M,1.4,0000*58
  67090855, $GNGGA,183810.40,4028.8795494,N,10650.3438492,W,4,22,0.7,2113.652,M,-12.181,M,2.4,0000*5E
  67091853, $GNGGA,183811.40,4028.8793965,N,10650.3434676,W,4,22,0.7,2113.638,M,-12.181,M,1.4,0000*51
  67092858, $GNGGA,183812.40,4028.8792129,N,10650.3431228,W,4,22,0.7,2113.621,M,-12.181,M,2.4,0000*52
  67093854, $GNGGA,183813.40,4028.8790353,N,10650.3427311,W,4,22,0.7,2113.573,M,-12.181,M,1.4,0000*55
  67094854, $GNGGA,183814.40,4028.8788741,N,10650.3423629,W,4,21,0.7,2113.484,M,-12.181,M,2.4,0000*5F
  67095853, $GNGGA,183815.40,4028.8786995,N,10650.3419267,W,4,22,0.7,2113.410,M,-12.181,M,1.4,0000*5D
  67096855, $GNGGA,183816.40,4028.8784972,N,10650.3415363,W,4,21,0.7,2113.358,M,-12.181,M,2.4,0000*57
  67097854, $GNGGA,183817.40,4028.8783127,N,10650.3411576,W,4,21,0.7,2113.314,M,-12.181,M,1.4,0000*54
  67098855, $GNGGA,183818.40,4028.8782164,N,10650.3409033,W,4,21,0.7,2113.264,M,-12.181,M,2.4,0000*55
  67099855, $GNGGA,183819.40,4028.8781878,N,10650.3407495,W,4,21,0.7,2113.203,M,-12.181,M,1.4,0000*57
  67100857, $GNGGA,183820.40,4028.8781157,N,10650.3405026,W,4,21,0.7,2113.127,M,-12.181,M,2.4,0000*51
  67101854, $GNGGA,183821.40,4028.8780897,N,10650.3404471,W,4,21,0.7,2113.116,M,-12.181,M,1.4,0000*52
  67102855, $GNGGA,183822.40,4028.8780888,N,10650.3404442,W,4,21,0.7,2113.124,M,-12.181,M,2.4,0000*5D
  67103855, $GNGGA,183823.40,4028.8781163,N,10650.3403850,W,4,21,0.7,2113.110,M,-12.181,M,1.4,0000*5D
  67104854, $GNGGA,183824.40,4028.8781771,N,10650.3402634,W,4,21,0.7,2113.032,M,-12.181,M,2.4,0000*50
  67105855, $GNGGA,183825.40,4028.8783095,N,10650.3401600,W,4,22,0.7,2113.045,M,-12.181,M,1.4,0000*5A
  67106852, $GNGGA,183826.40,4028.8785252,N,10650.3401025,W,4,21,0.7,2112.937,M,-12.181,M,2.4,0000*5A
  67107857, $GNGGA,183827.40,4028.8784649,N,10650.3401928,W,4,22,0.7,2113.095,M,-12.181,M,1.4,0000*50
  67108855, $GNGGA,183828.40,4028.8784196,N,10650.3404341,W,4,21,0.7,2113.260,M,-12.181,M,2.4,0000*52
  67109853, $GNGGA,183829.40,4028.8784889,N,10650.3407188,W,4,21,0.7,2113.197,M,-12.181,M,1.4,0000*58
  67110853, $GNGGA,183830.40,4028.8785893,N,10650.3409065,W,4,22,0.7,2113.014,M,-12.181,M,2.4,0000*5C
  67111856, $GNGGA,183831.40,4028.8786341,N,10650.3408950,W,4,22,0.7,2112.974,M,-12.181,M,1.4,0000*59
  67112854, $GNGGA,183832.40,4028.8787370,N,10650.3410306,W,4,22,0.7,2112.971,M,-12.181,M,2.4,0000*5F
  67113854, $GNGGA,183833.40,4028.8789355,N,10650.3413409,W,4,22,0.7,2112.987,M,-12.181,M,1.4,0000*56
  67114855, $GNGGA,183834.40,4028.8790787,N,10650.3415961,W,4,21,0.7,2113.023,M,-12.181,M,2.4,0000*51
  67115855, $GNGGA,183835.40,4028.8791694,N,10650.3417728,W,4,20,0.7,2113.032,M,-12.181,M,1.4,0000*51
  67116857, $GNGGA,183836.40,4028.8793481,N,10650.3420485,W,4,21,0.7,2113.042,M,-12.181,M,2.4,0000*53
  67117858, $GNGGA,183837.40,4028.8794939,N,10650.3422888,W,4,23,0.6,2113.052,M,-12.181,M,1.4,0000*59
  67118857, $GNGGA,183838.40,4028.8795001,N,10650.3423180,W,4,23,0.6,2113.066,M,-12.181,M,2.4,0000*51
  67119854, $GNGGA,183839.40,4028.8795047,N,10650.3423285,W,4,23,0.6,2113.067,M,-12.181,M,1.4,0000*56
  67120854, $GNGGA,183840.40,4028.8795380,N,10650.3423900,W,4,23,0.6,2113.068,M,-12.181,M,2.4,0000*5A
  67121854, $GNGGA,183841.40,4028.8796622,N,10650.3426275,W,4,22,0.7,2113.085,M,-12.181,M,1.4,0000*59
  67122856, $GNGGA,183842.40,4028.8797923,N,10650.3428384,W,4,22,0.7,2113.122,M,-12.181,M,2.4,0000*5B
  67123861, $GNGGA,183843.40,4028.8799520,N,10650.3431378,W,4,22,0.7,2113.117,M,-12.181,M,1.4,0000*55
  67124854, $GNGGA,183844.40,4028.8801112,N,10650.3433790,W,4,21,0.7,2113.091,M,-12.181,M,2.4,0000*56
  67125854, $GNGGA,183845.40,4028.8802175,N,10650.3436173,W,4,22,0.7,2113.115,M,-12.181,M,1.4,0000*56
  67126854, $GNGGA,183846.40,4028.8802345,N,10650.3436569,W,4,22,0.7,2113.125,M,-12.181,M,2.4,0000*5B
  67127853, $GNGGA,183847.40,4028.8802327,N,10650.3436589,W,4,22,0.7,2113.104,M,-12.181,M,1.4,0000*50
  67128852, $GNGGA,183848.40,4028.8802339,N,10650.3436589,W,4,22,0.7,2113.099,M,-12.181,M,2.4,0000*56
  67129853, $GNGGA,183849.40,4028.8802457,N,10650.3436974,W,4,22,0.7,2113.104,M,-12.181,M,1.4,0000*50
  67130853, $GNGGA,183850.40,4028.8803707,N,10650.3438965,W,4,22,0.7,2113.155,M,-12.181,M,2.4,0000*56
  67131853, $GNGGA,183851.40,4028.8805977,N,10650.3443042,W,4,23,0.6,2113.140,M,-12.181,M,1.4,0000*5F
  67132852, $GNGGA,183852.40,4028.8807604,N,10650.3447304,W,4,21,0.7,2113.192,M,-12.181,M,2.4,0000*5F
  67133869, $GNGGA,183853.40,4028.8810096,N,10650.3451757,W,4,21,0.7,2113.232,M,-12.181,M,1.4,0000*5A
  67134853, $GNGGA,183854.40,4028.8811731,N,10650.3455500,W,4,21,0.7,2113.312,M,-12.181,M,2.4,0000*52
  67135852, $GNGGA,183855.40,4028.8814241,N,10650.3459476,W,4,22,0.7,2113.387,M,-12.181,M,1.4,0000*54
  67136852, $GNGGA,183856.40,4028.8816472,N,10650.3463461,W,4,23,0.6,2113.539,M,-12.181,M,2.4,0000*5C
  67137851, $GNGGA,183857.40,4028.8818706,N,10650.3466505,W,4,22,0.7,2113.642,M,-12.181,M,1.4,0000*59
  67138854, $GNGGA,183858.40,4028.8821211,N,10650.3470463,W,4,21,0.7,2113.735,M,-12.181,M,2.4,0000*58
  67139855, $GNGGA,183859.40,4028.8823627,N,10650.3474792,W,4,23,0.6,2113.875,M,-12.181,M,1.4,0000*58
  67140852, $GNGGA,183900.40,4028.8825049,N,10650.3477129,W,4,21,0.7,2113.874,M,-12.181,M,2.4,0000*59
  67141853, $GNGGA,183901.40,4028.8825391,N,10650.3477636,W,4,21,0.7,2113.911,M,-12.181,M,1.4,0000*56
  67142851, $GNGGA,183902.40,4028.8826233,N,10650.3477710,W,4,21,0.7,2113.878,M,-12.181,M,2.4,0000*57
  67143851, $GNGGA,183903.40,4028.8826205,N,10650.3476619,W,4,21,0.7,2113.796,M,-12.181,M,1.4,0000*56
  67144854, $GNGGA,183904.40,4028.8825657,N,10650.3477473,W,4,21,0.7,2113.882,M,-12.181,M,2.4,0000*57
  67145850, $GNGGA,183905.40,4028.8825571,N,10650.3479169,W,4,21,0.7,2114.047,M,-12.181,M,1.4,0000*54
  67146853, $GNGGA,183906.40,4028.8826750,N,10650.3480993,W,4,22,0.7,2114.078,M,-12.181,M,2.4,0000*52
  67147852, $GNGGA,183907.40,4028.8827625,N,10650.3482737,W,4,22,0.7,2114.180,M,-12.181,M,1.4,0000*56
  67148852, $GNGGA,183908.40,4028.8828269,N,10650.3484568,W,4,22,0.7,2114.223,M,-12.181,M,2.4,0000*5D
  67149854, $GNGGA,183909.40,4028.8829687,N,10650.3487455,W,4,22,0.7,2114.225,M,-12.181,M,1.4,0000*50
  67150853, $GNGGA,183910.40,4028.8830336,N,10650.3488748,W,4,22,0.7,2114.227,M,-12.181,M,2.4,0000*5E
  67151853, $GNGGA,183911.40,4028.8831567,N,10650.3489422,W,4,22,0.7,2114.200,M,-12.181,M,1.4,0000*54
  67152852, $GNGGA,183912.40,4028.8833225,N,10650.3490926,W,4,22,0.7,2114.273,M,-12.181,M,2.4,0000*52
  67153852, $GNGGA,183913.40,4028.8834250,N,10650.3491415,W,4,22,0.7,2114.216,M,-12.181,M,1.4,0000*5A
  67154850, $GNGGA,183914.40,4028.8835048,N,10650.3492169,W,4,22,0.7,2114.207,M,-12.181,M,2.4,0000*59
  67155850, $GNGGA,183915.40,4028.8836030,N,10650.3492594,W,4,22,0.7,2114.126,M,-12.181,M,1.4,0000*51
  67156853, $GNGGA,183916.40,4028.8835934,N,10650.3492608,W,4,22,0.7,2114.138,M,-12.181,M,2.4,0000*56
  67157852, $GNGGA,183917.40,4028.8836088,N,10650.3492825,W,4,22,0.7,2114.124,M,-12.181,M,1.4,0000*55
  67158853, $GNGGA,183918.40,4028.8836206,N,10650.3493636,W,4,22,0.7,2114.151,M,-12.181,M,2.4,0000*52
  67159854, $GNGGA,183919.40,4028.8836218,N,10650.3493555,W,4,21,0.7,2114.062,M,-12.181,M,1.4,0000*5B
  67160854, $GNGGA,183920.40,4028.8836333,N,10650.3493398,W,4,21,0.7,2114.001,M,-12.181,M,2.4,0000*58
  67161853, $GNGGA,183921.40,4028.8836407,N,10650.3493452,W,4,21,0.7,2113.979,M,-12.181,M,1.4,0000*5A
  67162853, $GNGGA,183922.40,4028.8836488,N,10650.3493433,W,4,21,0.7,2113.968,M,-12.181,M,2.4,0000*5A
  67163854, $GNGGA,183923.40,4028.8836552,N,10650.3493376,W,4,21,0.7,2113.967,M,-12.181,M,1.4,0000*57
  67164852, $GNGGA,183924.40,4028.8836687,N,10650.3493424,W,4,21,0.7,2113.957,M,-12.181,M,2.4,0000*5B
  67165852, $GNGGA,183925.40,4028.8836783,N,10650.3493461,W,4,21,0.7,2113.936,M,-12.181,M,1.4,0000*5A
  67166852, $GNGGA,183926.40,4028.8837311,N,10650.3494718,W,4,21,0.7,2114.014,M,-12.181,M,2.4,0000*50
  67167851, $GNGGA,183927.40,4028.8838592,N,10650.3497489,W,4,22,0.7,2113.943,M,-12.181,M,1.4,0000*57
  67168854, $GNGGA,183928.40,4028.8839308,N,10650.3499548,W,4,22,0.7,2113.935,M,-12.181,M,2.4,0000*5C
  67169853, $GNGGA,183929.40,4028.8840104,N,10650.3500187,W,4,22,0.7,2113.866,M,-12.181,M,1.4,0000*5F
  67170854, $GNGGA,183930.40,4028.8840152,N,10650.3500208,W,4,22,0.7,2113.853,M,-12.181,M,2.4,0000*55
  67171852, $GNGGA,183931.40,4028.8840172,N,10650.3500147,W,4,22,0.7,2113.849,M,-12.181,M,1.4,0000*56
  67172851, $GNGGA,183932.40,4028.8840220,N,10650.3500100,W,4,22,0.7,2113.852,M,-12.181,M,2.4,0000*5B
  67173851, $GNGGA,183933.40,4028.8840233,N,10650.3500057,W,4,22,0.7,2113.851,M,-12.181,M,1.4,0000*5B
  67174852, $GNGGA,183934.40,4028.8840239,N,10650.3499992,W,4,22,0.7,2113.857,M,-12.181,M,2.4,0000*52
  67175851, $GNGGA,183935.40,4028.8840309,N,10650.3500039,W,4,22,0.7,2113.851,M,-12.181,M,1.4,0000*5D
  67176851, $GNGGA,183936.40,4028.8840610,N,10650.3500668,W,4,22,0.7,2113.847,M,-12.181,M,2.4,0000*55
  67177854, $GNGGA,183937.40,4028.8841175,N,10650.3501290,W,4,22,0.7,2113.860,M,-12.181,M,1.4,0000*55
  67178854, $GNGGA,183938.40,4028.8842237,N,10650.3502428,W,4,23,0.6,2113.812,M,-12.181,M,2.4,0000*5C
  67179855, $GNGGA,183939.40,4028.8843103,N,10650.3504084,W,4,23,0.6,2113.794,M,-12.181,M,1.4,0000*5E
  67180852, $GNGGA,183940.40,4028.8844074,N,10650.3505953,W,4,23,0.6,2113.679,M,-12.181,M,2.4,0000*55
  67181851, $GNGGA,183941.40,4028.8845247,N,10650.3508419,W,4,22,0.7,2113.480,M,-12.181,M,1.4,0000*5E
  67182852, $GNGGA,183942.40,4028.8845743,N,10650.3509239,W,4,23,0.6,2113.434,M,-12.181,M,2.4,0000*55
  67183852, $GNGGA,183943.40,4028.8846754,N,10650.3510710,W,4,22,0.7,2113.279,M,-12.181,M,1.4,0000*5B
  67184852, $GNGGA,183944.40,4028.8846785,N,10650.3511213,W,4,22,0.7,2113.269,M,-12.181,M,2.4,0000*55
  67185851, $GNGGA,183945.40,4028.8847162,N,10650.3511912,W,4,22,0.7,2113.228,M,-12.181,M,1.4,0000*56
  67186853, $GNGGA,183946.40,4028.8847172,N,10650.3511855,W,4,22,0.7,2113.216,M,-12.181,M,2.4,0000*58
  67187853, $GNGGA,183947.40,4028.8847168,N,10650.3511839,W,4,22,0.7,2113.216,M,-12.181,M,1.4,0000*5B
  67188852, $GNGGA,183948.40,4028.8847193,N,10650.3511845,W,4,22,0.6,2113.219,M,-12.181,M,2.4,0000*56
  67189851, $GNGGA,183949.40,4028.8847216,N,10650.3511827,W,4,22,0.6,2113.230,M,-12.181,M,1.4,0000*55
